bikes_available,docks_available,is_renting,is_returning,last_updated,station_id,name,latitude,longitude
2,16,true,true,1594115085,3210,Pershing Field,40.742677141,-74.051788633
1,20,true,true,1594115085,3606,49 Ave & 21 St,40.74252,-73.948852
2,28,true,true,1594115085,3959,Edgecombe Ave & W 145 St,40.823498,-73.94386
11,22,true,true,1594115085,3414,Bergen St & Flatbush Ave,40.6809447234773,-73.9756733179092
15,18,true,true,1594115085,467,Dean St & 4 Ave,40.68312489,-73.97895137
13,17,true,true,1594115085,3368,5 Ave & 3 St,40.6728155,-73.98352355
10,9,true,true,1594114954,0ff3bf339e08df67475b40f9ea275674,Natoma St at New Montgomery St,37.786553062581,-122.399607002735
6,12,true,true,1594114954,7a10659bcb8e88d97a98531df0dcd2be,Webster St at Clay St,37.7908030324239,-122.432590126991
3,32,true,true,1594115085,3517,31 St & Hoyt Ave N,40.7711528,-73.9170074
0,20,true,true,1594115085,3858,Kent St & McGuinness Blvd,40.73124,-73.95161
3,15,true,true,1594115085,3826,Moffat St & Bushwick,40.68458,-73.90925
5,9,true,true,1594115085,3281,Leonard Gordon Park,40.7459099663156,-74.0572714805603
6,10,true,true,1594114954,70efc46e03c990180a35965f9b1ac98c,24th St at Bartlett St,37.7521049844236,-122.419723570347
7,18,true,true,1594115085,3838,Bushwick Ave & Harman St,40.69356,-73.92524
11,12,true,true,1594114955,aca4a61933705a8f547227c4757e10cb,5th St at Taylor St,37.3509017927462,-121.895842552185
15,8,true,true,1594114955,53caaaa3c38e8f655c479672973ef040,San Jose City Hall,37.337391,-121.886995
8,18,true,true,1594115085,3526,31 St & 23 Ave,40.7747878,-73.9125551
10,6,true,true,1594114954,726e22d3f8e5b2f3b21230c49aa676c8,14th St at Filbert St,37.80874983466,-122.283282279968
4,25,true,true,1594115085,3836,Bushwick Ave & Linden St,40.69146,-73.92146
10,13,true,true,1594114954,758d57800b70b240ba3d852e4749dc09,22nd St at Dolores St,37.7550002603781,-122.425727695227
3,20,true,true,1594115085,3949,Brook Ave & E 138 St,40.807408,-73.91924
16,2,true,true,1594114955,6b13e6fa1252c733e32fdc7b13cba255,38th Ave at Balboa St,37.775522,-122.498498
9,28,true,true,1594115085,3312,1 Ave & E 94 St,40.7817212,-73.94594
4,15,true,true,1594115085,3249,Verona Pl & Fulton St,40.6803560840434,-73.9476791024208
0,0,false,false,1594114955,66d26936d43ac2f677f522354e3ef5a5,Harrison St at 17th St,37.7638471,-122.4130036
2,28,true,true,1594115085,447,8 Ave & W 52 St,40.76370739,-73.9851615
6,17,true,true,1594114954,0512841995dd7840bd165c2297b37672,The Embarcadero at Steuart St,37.791464,-122.391034
0,27,true,true,1594115085,3121,Jackson Ave & 46 Rd,40.74524768,-73.94733276
12,5,true,true,1594115085,3057,Kosciuszko St & Tompkins Ave,40.69128258,-73.9452416
18,12,true,true,1594115085,307,Canal St & Rutgers St,40.71427487,-73.98990025
5,19,true,true,1594115085,3491,E 118 St & 1 Ave,40.79747,-73.93504
21,8,true,true,1594115085,3993,W 59 St & West End Ave,40.771771,-73.990625
2,17,true,true,1594115085,3902,Fairview Ave & Linden St,40.70694,-73.90632
2,21,true,true,1594114954,d436129450e3a2223972a9b3f7134f73,University Ave at Oxford St,37.8723555,-122.2664467
15,42,true,true,1594115085,3898,E 63 St & 3 Ave,40.763954,-73.9646
10,12,true,true,1594114954,eb9c95aaf839b9c7e8b18e68288862a3,Berry St at King St,37.7717621103132,-122.398437559605
11,44,true,true,1594115085,3167,Amsterdam Ave & W 73 St,40.7796680900731,-73.9809304475784
1,21,true,true,1594115085,3895,Cypress Ave & Palmetto St,40.7015734087379,-73.9087629318237
2,21,true,true,1594115085,3179,Park Ave & Marcus Garvey Blvd,40.698617,-73.941342
40,9,true,true,1594115085,3786,Division St & Bowery,40.714193,-73.996732
13,23,true,true,1594115085,3553,Frederick Douglass Blvd & W 112 St,40.801694,-73.957145
26,4,true,true,1594115085,334,W 20 St & 7 Ave,40.74238787,-73.99726235
0,0,false,false,1594114954,0dea2fc1c8cc19369db493d2278fbbbc,Webster St at 19th St,37.8069697609559,-122.26658821106
7,25,true,true,1594115085,3848,Suydam St & Broadway,40.69544,-73.93223
0,15,true,true,1594115085,3875,Stephen St & Seneca Ave,40.6988,-73.9007
10,8,true,true,1594115085,3241,Monroe St & Tompkins Ave,40.686203,-73.944694
11,10,true,true,1594114954,b37844ae589cb7f15a885ade96508c4a,10th Ave at Irving St,37.7640909342992,-122.467378377914
0,25,true,true,1594115085,3299,E 98 St & Park Ave,40.78813,-73.95206
30,16,true,true,1594115085,3656,E 2 St & Avenue A,40.7230774906867,-73.9858362078667
4,16,true,true,1594115085,3891,Irving Ave & Palmetto St,40.698,-73.9127
1,26,true,true,1594115085,3365,3 St & 7 Ave,40.6703837,-73.97839676
14,11,true,true,1594115085,3408,Congress St & Clinton St,40.6881529,-73.99520919
24,5,true,true,1594114955,a7d703c1d843d22ee42adb5e6db291da,23rd St at Tennessee St,37.7553671321585,-122.388795018196
15,39,true,true,1594115085,3641,Broadway & W 25 St,40.7428687731211,-73.9891862869263
19,28,true,true,1594115085,462,W 22 St & 10 Ave,40.74691959,-74.00451887
4,11,true,true,1594114955,c9ac204340f5d958faa1cc6186b30dc5,Shattuck Ave at Telegraph Ave,37.8332786,-122.2634901
21,30,true,true,1594115085,442,W 27 St & 7 Ave,40.746647,-73.993915
58,13,true,true,1594115085,470,W 20 St & 8 Ave,40.74345335,-74.00004031
1,8,false,false,1594114954,1372941b523f4ca92d4bfee7ea85ac95,4th Ave at E 12th St (Temporary Location),37.795913,-122.255547
21,3,true,true,1594115085,3454,Leonard St & Maujer St,40.7103685423523,-73.9470595121384
16,5,true,true,1594114954,49bb4994b8e1aacd936090458544f74d,Taylor St at 9th St,37.353061661331,-121.891937255859
17,3,true,true,1594115085,3819,Green St & McGuinness Blvd,40.73396,-73.95204
29,10,true,true,1594115085,383,Greenwich Ave & Charles St,40.735238,-74.000271
14,4,true,true,1594114954,ca6bfd5cd907c1eb59d33dd8a0c38faa,Valencia St at Cesar Chavez St,37.7479981,-122.4202187
13,13,true,true,1594115085,282,Kent Ave & S 11 St,40.7076449441757,-73.9684152603149
1,24,true,true,1594115085,3953,W 147 St & Adam Clayton Powell Blvd,40.82281,-73.937413
14,0,true,true,1594115085,3280,Astor Place,40.719282200707,-74.071261882782
18,0,true,true,1594115085,3661,Montgomery St & Franklin Ave,40.6664393068708,-73.9605563879013
7,20,true,true,1594115085,448,W 37 St & 10 Ave,40.75660359,-73.9979009
3,21,true,true,1594115085,3996,Lexington Ave & E 128 St,40.806414,-73.936085
4,14,true,true,1594115085,3863,Central Ave & Woodbine St,40.69296,-73.91605
7,8,true,true,1594114955,b91103a4e638130a1de6c5eea75a0854,Adeline St at 40th St,37.8312769,-122.2782669
4,15,true,true,1594114954,df3286fb70521afe8b7c68681e57f777,Stanyan St at Geary Blvd,37.780949,-122.456303
12,15,true,true,1594114953,b4b0088fb4fbb4587cad9d89ddc092cd,Pierce Ave at Market St,37.327581,-121.884559
27,18,true,true,1594115085,3145,E 84 St & Park Ave,40.77862688,-73.95772073
31,3,true,true,1594115085,483,E 12 St & 3 Ave,40.73223272,-73.98889957
0,29,true,true,1594115085,3570,35 Ave & 37 St,40.7557327,-73.9236611
17,8,true,true,1594114954,bafbf8c2ef10271c489e9ab99dc9bd21,Mission Bay Kids Park,37.7723006317476,-122.393027544022
2,28,true,true,1594115085,3490,E 116 St & 2 Ave,40.796879,-73.937261
32,22,true,true,1594115085,3140,1 Ave & E 78 St,40.77140426,-73.9535166
11,1,true,true,1594114954,731650e7cbef710c994091a832b44079,Evans Ave at Mendell St,37.7401775433514,-122.383736371994
29,1,true,true,1594115085,3781,Greene Av & Myrtle Av,40.698568,-73.918877
0,30,true,true,1594115085,3967,W 146 St & Broadway,40.826969,-73.949738
47,0,true,true,1594115085,3711,E 13 St & Avenue A,40.7296672939298,-73.9806796610355
9,23,true,true,1594115085,3740,W Broadway & W Houston St,40.726378,-74.000472
37,16,true,true,1594115085,317,E 6 St & Avenue B,40.72453734,-73.98185424
4,23,true,true,1594115085,3581,Underhill Ave & Lincoln Pl,40.6740123,-73.9671457
0,19,true,true,1594115085,3808,24 St & 41 Ave,40.752474,-73.939991
6,9,true,true,1594114954,55f0ed0965a5a80f451700832338cd49,Fruitvale BART Station,37.7752321,-122.2244982
1,22,true,true,1594115085,3884,Centre St & Seneca Ave,40.69969,-73.9022
5,22,true,true,1594114955,794cb9426661fc4ba684c6a147f4ea92,Post St at Baker St,37.783973,-122.442878
18,16,true,true,1594115085,2012,E 27 St & 1 Ave,40.739445,-73.976806
36,3,true,true,1594115085,495,W 47 St & 10 Ave,40.76269882,-73.99301222
29,5,true,true,1594115085,388,W 26 St & 10 Ave,40.749717753,-74.002950346
28,7,true,true,1594115085,3521,Lenox Ave & W 111 St,40.7987859,-73.9523
11,10,true,true,1594115085,3578,Park Pl & Franklin Ave,40.6741806,-73.9564947
13,14,true,true,1594114954,d057730bd39a7e2c920ff32d19393eb6,Townsend St at 7th St,37.771058,-122.402717
7,35,true,true,1594115085,3584,Eastern Pkwy & Franklin Ave,40.6707767,-73.9576801
9,6,true,true,1594114954,155125eff6270d14ae62b26c85f15ce3,Julian St at 6th St,37.3429973,-121.8888891
17,33,true,true,1594115085,3709,W 15 St & 6 Ave,40.7380461424828,-73.996429592371
21,0,true,true,1594115085,3764,Bushwick Ave & McKibbin St,40.705517,-73.93936
13,9,true,true,1594115085,3187,Warren St,40.7211236,-74.03805095
18,60,true,true,1594115085,422,W 59 St & 10 Ave,40.770513,-73.988038
36,8,true,true,1594115085,415,Pearl St & Hanover Square,40.7047177,-74.00926027
10,12,true,true,1594114954,d030365db7e396de64147261e783a062,Bay Pl at Vernon St,37.8123140913515,-122.260778546333
1,23,true,true,1594115085,3728,Pierrepont St & Monroe Pl,40.6953569332022,-73.9934402704239
35,4,true,true,1594115085,3107,Bedford Ave & Nassau Ave,40.72311651,-73.95212324
2,26,true,true,1594115085,3378,E 76 St & Park Ave,40.773763,-73.96222088
22,21,true,true,1594115085,361,Allen St & Hester St,40.71605866,-73.99190759
7,32,true,true,1594115085,323,Lawrence St & Willoughby St,40.69236178,-73.98631746
21,18,true,true,1594115085,351,Front St & Maiden Ln,40.70530954,-74.00612572
32,7,true,true,1594115085,387,Centre St & Chambers St,40.71273266,-74.0046073
17,7,true,true,1594115085,3399,7 St & 3 Ave,40.6726029815013,-73.9898300170898
19,4,true,true,1594115085,419,Carlton Ave & Park Ave,40.69580705,-73.97355569
8,10,true,true,1594114955,fcbb52bd7f4fcf0f57a7cc47078c7ff4,Yerba Buena Center for the Arts (Howard St at 3rd St),37.7848720843606,-122.400875687599
10,4,true,true,1594115085,3268,Lafayette Park,40.713463826692,-74.0628585219383
6,15,true,true,1594115085,3546,Pacific St & Classon Ave,40.6791944,-73.9587903
6,13,true,true,1594114955,0ceed296dc7ef21bc6dc3999e23db576,San Carlos St at 11th St,37.3364659,-121.8766132
37,4,true,true,1594115085,309,Murray St & West St,40.7149787,-74.013012
19,11,true,true,1594115085,534,Water - Whitehall Plaza,40.70255065,-74.0127234
3,21,true,true,1594115085,3494,E 115 St & Lexington Ave,40.797911,-73.9423
7,15,true,true,1594114954,a2b35c2295034dbcd762ffeb728c9163,El Embarcadero at Grand Ave,37.8088479,-122.2496799
24,17,true,true,1594115085,3074,Montrose Ave & Bushwick Ave,40.70767788,-73.94016171
40,19,true,true,1594115085,434,9 Ave & W 18 St,40.74317449,-74.00366443
5,26,true,true,1594115085,3583,Eastern Pkwy & Washington Ave,40.6716493,-73.9631145
12,9,true,true,1594114955,251e5569c29684642d8e0c8462446b87,5th Ave at Anza St,37.7794876092433,-122.463141828775
0,26,true,true,1594115085,3207,Oakland Ave,40.7376037,-74.0524783
23,4,true,true,1594115085,3078,Broadway & Roebling St,40.7092482627616,-73.9606314897537
1,22,true,true,1594114955,3f7bcb194b23b7ec05700eaaae5e2f6b,West Oakland BART Station,37.8053183,-122.2948365
11,52,true,true,1594115085,468,Broadway & W 56 St,40.7652654,-73.98192338
0,23,true,true,1594115085,3716,40 Ave & Crescent St,40.7535992020056,-73.9379560947418
10,13,true,true,1594115085,3777,Stockholm St & Wilson Ave,40.699304,-73.923044
0,28,true,true,1594115085,3582,Lincoln Pl & Classon Ave,40.6721683,-73.9609
9,14,true,true,1594114954,dbd21ac9ae9f5cd34c4980b4f103b550,10th St at Fallon St,37.7976728,-122.2629973
8,19,true,true,1594115085,3745,36 Ave & 31 St,40.7565127298495,-73.9295748621225
7,18,true,true,1594115085,3496,1 Ave & E 110 St,40.7923272,-73.9383
0,15,true,true,1594115085,3646,35 Ave & 10 St,40.7631548191037,-73.9398550987244
16,11,true,true,1594115085,308,St James Pl & Oliver St,40.71307916,-73.99851193
13,26,true,true,1594115085,3914,West End Ave & W 78 St,40.783786,-73.981687
9,9,true,true,1594114954,8383114e19ade35a8ef2c48942117cc3,Market St at Dolores St,37.7693053,-122.4268256
35,13,true,true,1594115085,459,W 20 St & 11 Ave,40.746745,-74.007756
4,19,true,true,1594115085,356,Bialystoker Pl & Delancey St,40.71622644,-73.98261206
12,18,true,true,1594115085,3325,E 95 St & 3 Ave,40.7849032,-73.950503
24,11,true,true,1594115085,478,11 Ave & W 41 St,40.76030096,-73.99884222
16,11,true,true,1594114954,d777960e181c3911183b59171cded0a8,Mission Dolores Park,37.7614205,-122.4264353
36,10,true,true,1594115085,446,W 24 St & 7 Ave,40.74487634,-73.99529885
3,16,true,true,1594115085,3952,E 141 St & Jackson Ave,40.806896,-73.911837
10,13,true,true,1594115085,3337,Dwight St & Van Dyke St,40.673635513415,-74.0119555592537
11,12,true,true,1594114954,6230d81b26fbf3b08d04f63a436c69f9,Ashby BART Station,37.8524766,-122.2702132
6,20,true,true,1594114954,edd2cf03bfbe6ade0bd14f40ae4b5ece,Telegraph Ave at 19th St,37.8087021,-122.2699271
18,13,true,true,1594115085,432,E 7 St & Avenue A,40.72621788,-73.98379855
12,26,true,true,1594114954,906987f156c8aa7019a5afbb320d10de,3rd St at Townsend St,37.7787416115368,-122.392740827108
2,19,true,true,1594115085,3615,44 Dr & 21 St,40.748,-73.9460927
6,23,true,true,1594115085,3346,Berkeley Pl & 7 Ave,40.6751468387098,-73.9752320945263
27,12,true,true,1594115085,3288,E 88 St & 1 Ave,40.778301,-73.9488134
24,19,true,true,1594115085,3478,2 Ave & 36 St,40.6570886666849,-74.0087020397186
1,17,true,true,1594115085,3988,E 128 St & 3 Ave,40.805631,-73.934077
15,10,true,true,1594115085,3597,43 St & Broadway,40.7577284,-73.9166368
4,30,true,true,1594115085,406,Hicks St & Montague St,40.69512845,-73.99595065
23,4,true,true,1594115085,3386,1 Pl & Clinton St,40.6809591,-73.99905709
19,3,true,true,1594115085,443,Bedford Ave & S 9 St,40.70853074,-73.96408963
16,8,true,true,1594115085,3072,Leonard St & Boerum St,40.70583339,-73.94644578
1,22,true,true,1594115085,3814,E 56 St & Madison Ave,40.761573,-73.972628
1,28,true,true,1594115085,3131,E 68 St & 3 Ave,40.7671284034954,-73.9622461795807
1,29,true,true,1594115085,3944,Convent Ave & W 135 St,40.818215,-73.950988
3,22,true,true,1594115085,3529,Lenox Ave & W 130 St,40.8107922,-73.9430681
19,12,true,true,1594114954,56f53debad9975bac0223a6866f12533,Central Ave at Fell St,37.7733108788972,-122.444292604923
21,4,true,true,1594115085,3532,Ditmars Blvd & 19 St,40.78145,-73.9183302
8,22,true,true,1594115085,3580,St Johns Pl & Washington Ave,40.6737236,-73.9631611
16,3,true,true,1594114954,a861792de6f7790503849a5227a1f8c6,Harrison St at 20th St,37.758862,-122.412544
23,23,true,true,1594115085,3733,Avenue C & E 18 St,40.730563,-73.973984
12,12,true,true,1594114954,1cbb10fee8b199eb76d207429ea4a910,Market St at Steuart St,37.7944974460021,-122.394838035107
4,20,true,true,1594115085,3058,Lewis Ave & Kosciuszko St,40.69237074,-73.93705428
10,13,true,true,1594114954,d52c0adcc197c7899d056dfd1caace76,Pier 1/2 at The Embarcadero,37.7963894,-122.3945855
21,3,true,true,1594115085,389,Broadway & Berry St,40.71044554,-73.96525063
2,16,true,true,1594115085,3833,Madison St & Evergreen Ave,40.69122,-73.91693
9,14,true,true,1594114954,1c136018be28c6420a6c5239d1e17179,7th Ave at Cabrillo St,37.7751755065867,-122.465007305145
1,29,true,true,1594115085,3154,E 77 St & 3 Ave,40.77314236,-73.95856158
0,19,true,true,1594115085,3559,21 St & 38 Ave,40.7576314,-73.9391224
7,8,true,true,1594114954,8870d1c76fa018d1758fad83f2be5237,Market St at 40th St,37.8305452,-122.2739367
3,12,true,true,1594114955,aca2db0bb7fe57847fca972c91a02f72,Foothill Blvd at Fruitvale Ave,37.7837569,-122.2226033
17,2,true,true,1594115085,3060,Willoughby Ave & Tompkins Ave,40.69425403,-73.94626915
17,2,true,true,1594115085,3395,Henry St & W 9 St,40.6763744,-74.00324957
13,21,true,true,1594115085,310,State St & Smith St,40.68926942,-73.98912867
9,18,true,true,1594115085,3544,Underhill Ave & Pacific St,40.6804836,-73.9646795
15,8,true,true,1594114955,be806da4e80f7bd2ce97de96d896036a,Channing Way at San Pablo Ave,37.8628271,-122.2902305
28,10,true,true,1594115085,3727,Frost St & Meeker Ave,40.7176619708399,-73.948800265789
5,22,true,true,1594114954,219cc838b24b5ceb39af7bcd6e6c5e13,Kerley Dr at Rosemary St,37.3608541552538,-121.906834244728
0,23,true,true,1594114954,eea0a9aed0f267d94aa702cd52458754,College Ave at Bryant Ave,37.8381269,-122.2512714
23,7,true,true,1594115085,3087,Metropolitan Ave & Meeker Ave,40.71413311,-73.95234386
15,8,true,true,1594114954,e8061d928a602d4e74975b184f61df6d,Valencia St at 21st St,37.7567083,-122.421025
20,10,true,true,1594115085,3148,E 84 St & 1 Ave,40.77565541,-73.95068615
7,19,true,true,1594115085,3927,Lenox Ave & W 133 St,40.81296,-73.941878
22,17,true,true,1594115085,250,Lafayette St & Jersey St,40.72456089,-73.99565293
34,4,true,true,1594115085,146,Hudson St & Reade St,40.71625008,-74.0091059
10,32,true,true,1594115085,379,W 31 St & 7 Ave,40.749156,-73.9916
6,11,true,true,1594115085,3935,Amsterdam Ave & W 131 St,40.816355,-73.954295
10,8,true,true,1594114955,54346a82070e38f3cb2246ef4bc0062f,Derby St at College Ave,37.8618037,-122.2535687
3,9,true,true,1594114955,9b4f2ce733dbdb64a2b5d3464ec5eb90,22nd St at William St,37.3403787406505,-121.864020824432
4,32,true,true,1594115085,3507,Park Ave & E 124 St,40.8045555,-73.9396861
21,18,true,true,1594115085,3429,Hanson Pl & Ashland Pl,40.6850680730818,-73.9779075980186
24,10,true,true,1594115085,3379,E 103 St & Lexington Ave,40.7903051,-73.94755757
2,16,true,true,1594114954,73edabd1eaf63a026c81fb580dfcdf7f,21st Ave at Geary Blvd,37.780111,-122.480389
6,20,true,true,1594114954,df88c2e9c068b1f96081442b6cb639d9,Funston Ave at Irving St,37.7639340252141,-122.470650672913
38,5,true,true,1594115085,3452,Bayard St & Leonard St,40.7191557169604,-73.9488539099693
17,6,true,true,1594114954,5a3ef6c03f1ce19c588c078270170a18,Horton St at 40th St,37.8297046,-122.2876102
2,21,true,true,1594115085,2017,E 43 St & 2 Ave,40.75022392,-73.97121414
4,18,true,true,1594115085,4020,Bradhurst Ave & W 148 St,40.825125,-73.941616
1,22,true,true,1594115085,3577,34 Ave & 21 St,40.7628138,-73.9342862
3,26,true,true,1594115085,3723,Cadman Plaza E & Johnson St,40.695317277669,-73.9901572465897
8,16,true,true,1594115085,3391,E 106 St & 1 Ave,40.7892529,-73.93956237
10,10,true,true,1594115085,3063,Nostrand Ave & Myrtle Ave,40.69527008,-73.95238108
12,15,true,true,1594114954,b9afbe24f97e40d2168eed1c8184c07d,Lakeside Dr at 14th St,37.8013189,-122.2626418
9,6,true,true,1594114954,76b57950b5f2a4b0a4821e64bb700e24,Dover St at 57th St,37.8426295,-122.267738
6,17,true,true,1594115085,258,DeKalb Ave & Vanderbilt Ave,40.68940747,-73.96885458
9,21,true,true,1594115085,479,9 Ave & W 45 St,40.76019252,-73.9912551
3,20,true,true,1594114954,0deb7e762d80f771360306ef132bce3d,Valencia St at 16th St,37.765052,-122.4218661
9,8,true,true,1594114954,410dd83d0d8ede1eb042192ec1e56d77,Duboce Park,37.7692005,-122.4338119
10,17,true,true,1594114954,2071d932da798d6bb16925211a4c0ef9,Page St at Scott St,37.772406,-122.4356498
7,12,true,true,1594114954,63c1d64d1de2d99f101592fb22afa728,Park Ave at Laurel Grove Ln,37.3262823241058,-121.904911100864
19,12,true,true,1594114954,84be6cf420cd87e93c445a72b0368b99,19th Street BART Station,37.8093686121349,-122.267950773239
9,10,true,true,1594114954,ea01c0b5e396cbce06567751f33bb2b5,Divisadero St at Clay St,37.789688,-122.440688
2,23,true,true,1594115085,3327,3 Ave & E 100 St,40.7877214,-73.94728331
23,2,true,true,1594115085,3095,Graham Ave & Herbert St,40.71929301,-73.94500379
14,24,true,true,1594115085,3541,Amsterdam Ave & W 125 St,40.813358,-73.956461
3,26,true,true,1594115085,3506,Lexington Ave & E 120 St,40.8013066,-73.9398167
9,29,true,true,1594115085,3171,Amsterdam Ave & W 82 St,40.78524672,-73.97667321
6,24,true,true,1594115085,539,Metropolitan Ave & Bedford Ave,40.71534825,-73.96024116
5,18,true,true,1594115085,3402,Court St & State St,40.6902375,-73.99203074
19,8,true,true,1594114954,f90f6aaad26eb05d21715875bee33c86,Alameda St at Henry Adams St,37.7685457411846,-122.404402792454
0,26,true,true,1594115085,423,W 54 St & 9 Ave,40.76584941,-73.98690506
13,10,true,true,1594114955,32fec07f466d23ac5fa8be2e05d17312,San Pedro St at Hedding St,37.352601,-121.905733
16,7,true,true,1594115085,343,Clinton Ave & Flushing Ave,40.69794,-73.96986848
10,8,true,true,1594114954,aef71869dbbdf150a0e6807bc3512730,Skyport Dr at Technology Dr,37.3652265519102,-121.916814744473
6,13,true,true,1594114954,bd6bf51c4defa1eba0c9bdbc8478b3ce,MLK Jr Way at 14th St,37.8061628,-122.2760402
9,14,true,true,1594115085,3405,5 St & 6 Ave,40.6704836,-73.98208968
4,21,true,true,1594115085,3358,Garfield Pl & 8 Ave,40.6711978,-73.97484126
14,9,true,true,1594114954,2e148870409210e664005a58263b186a,Cahill Park,37.3291186681478,-121.904575824738
1,26,true,true,1594115085,3504,E 123 St & Lexington Ave,40.8029263,-73.9379
4,15,true,true,1594115085,3936,W 133 St & 12 Ave,40.820003,-73.959089
10,4,true,true,1594114954,e4484b938889737f1687d11b6ff02341,San Carlos St at Market St,37.330698,-121.888979
9,14,true,true,1594114954,840924c8e286486604f62ef9c02ef185,MLK Jr Way at University Ave,37.8717192,-122.2730677
3,15,true,true,1594114954,96bae776dd2cf75e6ed06895761636af,Jersey St at Church St,37.7509004,-122.4274114
4,29,true,true,1594115085,3630,Frederick Douglass Blvd & W 115 St,40.8038654,-73.9559308
2,0,true,true,1594115085,3565,36 Ave & 10 St,40.7614376,-73.9411265
7,12,true,true,1594114955,59f57a632668a24ab18d8bc9ff703af2,23rd St at Taylor St,37.3600013909666,-121.878778338432
3,17,true,true,1594115085,3726,Center Blvd & 51 Ave,40.7433660802702,-73.95960688591
12,8,true,true,1594115085,3080,S 4 St & Rodney St,40.70934,-73.95608
7,24,true,true,1594115085,3137,5 Ave & E 73 St,40.77282817,-73.96685276
13,32,true,true,1594115085,3226,W 82 St & Central Park West,40.78275,-73.97137
17,7,true,true,1594115085,3105,N 15 St & Wythe Ave,40.724055,-73.955736
10,7,true,true,1594115085,3191,Union St,40.7182113,-74.0836394
15,6,true,true,1594115085,3770,Central Ave & Flushing Ave,40.702831,-73.9333
2,23,true,true,1594115085,3879,Broadway & Madison St,40.68822,-73.91966
7,23,true,true,1594115085,3509,Lenox Ave & W 115 St,40.8011939,-73.9500739
20,7,true,true,1594115085,251,Mott St & Prince St,40.72317958,-73.99480012
7,13,true,true,1594115085,3605,31 Ave & Crescent St,40.7658346,-73.9265474
12,11,true,true,1594115085,3315,Henry St & Degraw St,40.6847514,-73.99917254
6,25,true,true,1594115085,3354,3 St & Prospect Park West,40.668132,-73.97363831
3,26,true,true,1594115085,3649,W 129 St & Convent Ave,40.8143944379158,-73.9532473683357
0,18,true,true,1594115085,3929,Willis Ave & E 141 St,40.81093,-73.921606
6,5,true,true,1594115085,2005,Railroad Ave & Kay Ave,40.70531194,-73.97100056
19,4,true,true,1594114955,60031404d0e98d8de9b6531836dc0888,2nd St at Julian St,37.3411320354795,-121.892843842506
15,19,true,true,1594115085,3126,44 Dr & Jackson Ave,40.74718234,-73.9432635
4,11,true,true,1594114954,efbe528107bed4defe202f50c2d6f2c0,Shattuck Ave at 55th St,37.8403643,-122.2644881
19,2,true,true,1594115085,3106,Driggs Ave & N Henry St,40.72325,-73.94308
8,11,true,true,1594114954,180d55e6003a97c9b507f3258084ea67,McCoppin St at Valencia St,37.7716624622162,-122.42242321372
5,12,true,true,1594115085,3691,28 Ave & 44 St,40.7640893235069,-73.9106512069702
25,5,true,true,1594115085,2000,Front St & Washington St,40.70255088,-73.98940236
15,0,true,true,1594115085,3279,Dixon Mills,40.7216301426384,-74.0499678254128
10,5,true,true,1594114955,35f5a7921e0006fdde8b661781c777f6,Indiana St at Cesar Chavez St,37.7504343570623,-122.390447258949
9,14,true,true,1594114953,da17603652106fda93da4e255a5b0a22,Oak St at 1st St,37.3221246254486,-121.881090402603
18,1,true,true,1594114954,f1fd7bda2e0a3cf1900d275f24ff94ff,Folsom St at 15th St,37.7670373,-122.4154425
4,21,true,true,1594115085,3300,Prospect Park West & 8 St,40.6651468153379,-73.9763760566711
30,10,true,true,1594115085,3118,McGuinness Blvd & Eagle St,40.73555,-73.95284
13,32,true,true,1594115085,410,Suffolk St & Stanton St,40.72066442,-73.98517977
16,5,true,true,1594115085,3911,Wyckoff St & Nevins St,40.683426,-73.984275
27,12,true,true,1594115085,528,2 Ave & E 31 St,40.74290902,-73.97706058
6,19,true,true,1594115085,3360,Amsterdam Ave & W 79 St,40.7829391,-73.9786517
10,9,true,true,1594115085,3054,Greene Ave & Throop Ave,40.6894932,-73.942061
30,2,true,true,1594115085,3314,W 95 St & Broadway,40.7937704,-73.971888
8,12,true,true,1594115085,3773,Knickerbocker Ave & Thames St,40.70539,-73.92976
2,25,true,true,1594114954,1a72eda649a19404886077229827b2d3,North Berkeley BART Station,37.873558,-122.283093
23,1,true,true,1594115085,276,Duane St & Greenwich St,40.71748752,-74.0104554
25,9,true,true,1594115085,298,3 Ave & Schermerhorn St,40.68683208,-73.9796772
4,10,true,true,1594115085,3272,Jersey & 3rd,40.7233315864644,-74.0459525585174
13,10,true,true,1594114953,d576652cc151c23d6ec52b8454429d47,William St at 10th St,37.3327938,-121.8759263
26,17,true,true,1594115085,195,Liberty St & Broadway,40.70905623,-74.01043382
12,11,true,true,1594115085,3551,3 Ave & E 112 St,40.795508,-73.941606
22,8,true,true,1594115085,458,11 Ave & W 27 St,40.751396,-74.005226
4,22,true,true,1594115085,466,W 25 St & 6 Ave,40.74395411,-73.99144871
18,15,true,true,1594115085,223,W 13 St & 7 Ave,40.73781509,-73.99994661
6,9,true,true,1594114954,456bf3370b191fab5745567356a8423f,30th St at San Jose Ave,37.7423139,-122.4231805
13,2,true,true,1594114954,ead93e0002db0611076fb2d63f76ce05,Santa Clara St at 7th St,37.3391456,-121.8841054
5,20,true,true,1594115085,3821,Evergreen Ave & Noll St,40.70106,-73.93318
5,14,true,true,1594115085,3607,31 Ave & 14 St,40.7682,-73.9322662
6,17,true,true,1594114954,b063f8d6a24fea4eb06aac2817efc46b,Park Ave at Race St,37.3260108479408,-121.912327408791
1,31,true,true,1594115085,3572,34 Ave & 38 St,40.756913,-73.921631
3,17,true,true,1594115085,3352,Sigourney St & Columbia St,40.6726724341095,-74.0087952464819
2,16,true,true,1594115085,3947,E 138 St & Willow Ave,40.804168,-73.911545
14,4,true,true,1594114953,0a24b6ab9ca6684780b6682901b3c680,Empire St at 1st St,37.3448821,-121.8969655
21,5,true,true,1594115085,372,Franklin Ave & Myrtle Ave,40.694546087246,-73.9580136537552
4,7,true,true,1594114954,0794b05a99e808986301411273356796,Telegraph Ave at Alcatraz Ave,37.8502218744968,-122.260172367096
28,2,true,true,1594115085,3771,McKibbin St & Bogart St,40.706237,-73.933871
20,11,true,true,1594114954,bc2abce263a2f83bb06458da69bf02ab,7th St at Empire St,37.3477119817597,-121.890553236008
16,11,true,true,1594114954,36aa8ab83177d5f5beb83685c7f645d3,Washington St at 8th St,37.8007544,-122.2748943
1,20,true,true,1594115085,4018,Broadway & W 131 St,40.817555,-73.957163
9,10,true,true,1594114954,788ec24190cc2861203ff8d6ecb5d3a3,Shattuck Ave at 51st St,37.8368013,-122.2640037
2,17,true,true,1594115085,3883,Harman St & Seneca Ave,40.70577,-73.91292
1,25,true,true,1594115085,3860,Wilson Ave & Troutman St,40.70166,-73.92754
2,23,true,true,1594115085,3527,5 Ave & E 126 St,40.80698,-73.941747
5,18,true,true,1594115085,3524,19 St & 24 Ave,40.7774552,-73.9225403
2,21,true,true,1594115085,3958,Willis Ave & E 143 St,40.812299,-73.92037
4,15,true,true,1594114954,1ad3234f9bd6b3e93ef20656d9111087,MacArthur Blvd at Telegraph Ave,37.8262863,-122.2651002
0,23,true,true,1594115085,3622,E 128 St & Madison Ave,40.80756,-73.939182
7,46,true,true,1594115085,3809,W 55 St & 6 Ave,40.763189,-73.978434
18,13,true,true,1594115085,390,Duffield St & Willoughby St,40.69221589,-73.9842844
11,12,true,true,1594114955,c9e4c1e83ef53fe6270ae6bda8ba1d8e,Willow St at Blewett Ave,37.3090140742759,-121.900010704994
13,18,true,true,1594114953,c7d58812e5bcf9183e20ec387d0386a9,Snow Park,37.807813182179,-122.264496088028
4,13,true,true,1594115085,3849,Suydam St & St. Nicholas Ave,40.70636,-73.91945
3,21,true,true,1594115085,3310,14 St & 7 Ave,40.663779,-73.98396846
5,10,true,true,1594114955,4deef404025cb87bec9c395b953cdfd9,College Ave at Alcatraz Ave,37.8513755,-122.2525233
1,18,true,true,1594114954,e5a34fd23cbefa6b718d20509d1d8bdc,5th St at San Salvador St,37.3320386809513,-121.881766319275
9,17,true,true,1594115085,3276,Marin Light Rail,40.7145840353589,-74.042817056179
14,13,true,true,1594115085,3110,Meserole Ave & Manhattan Ave,40.72708584,-73.95299117
13,26,true,true,1594115085,3328,W 100 St & Manhattan Ave,40.795,-73.9645
30,0,true,true,1594115085,3823,Beaver St & Fayette St,40.70099,-73.93921
13,14,true,true,1594114955,8744f3ffea155dd0b5e223031ace4513,Powell St at Columbus Ave,37.8004960366826,-122.410887032747
21,6,true,true,1594115085,3373,3 St & 3 Ave,40.6750705,-73.98775226
16,3,true,true,1594114954,bb29347739d341f12609902860d0f408,W Julian St at N Morrison St,37.3336771228599,-121.908617913723
36,0,true,true,1594115085,3463,E 16 St & Irving Pl,40.7353670556054,-73.9879739284515
6,14,true,true,1594115085,3909,Madison St & Woodward Ave,40.70408,-73.90408
6,24,true,true,1594114955,e39f47e22d92b577730c9775a91ada5f,Mosswood Park,37.8248925299511,-122.260436546103
1,77,true,true,1594115085,267,Broadway & W 36 St,40.75097711,-73.98765428
11,8,true,true,1594115085,3772,Devoe St & Morgan Ave,40.713811,-73.93515
43,7,true,true,1594115085,3744,1 Ave & E 5 St,40.725864,-73.986389
0,41,false,false,1594115085,520,W 52 St & 5 Ave,40.75992262,-73.97648516
12,7,true,true,1594114954,aabb5e99f9ec1e90f7788d38b4945360,Oakdale Ave at Phelps St,37.7368516211844,-122.394250631332
3,31,true,true,1594115085,3195,Sip Ave,40.7308970978618,-74.0639126300812
2,17,false,false,1594114954,e9d82f4d2f1525cc654976f3fdf7f45a,Telegraph Ave at 27th St,37.8160731150114,-122.267886400223
42,2,true,true,1594115085,3283,W 89 St & Columbus Ave,40.7882213,-73.97041561
8,23,true,true,1594115085,440,E 45 St & 3 Ave,40.75255434,-73.97282625
18,3,true,true,1594115085,408,Market St & Cherry St,40.71076228,-73.99400398
0,19,true,true,1594115085,3960,Hamilton Pl & W 140 St,40.822756,-73.951346
22,20,true,true,1594115085,284,Greenwich Ave & 8 Ave,40.7390169121,-74.0026376103
2,23,true,true,1594115085,3044,Albany Ave & Fulton St,40.6800105,-73.938475
7,12,true,true,1594114954,ea61a83a34b04232f0247391ec3ae2e9,Russell St at College Ave,37.8584732,-122.2532529
15,3,true,true,1594115085,3255,8 Ave & W 31 St,40.7505853470215,-73.9946848154068
16,13,true,true,1594115085,3867,Somers St & Broadway,40.67945,-73.90474
0,23,true,true,1594115085,3128,21 St & 43 Ave,40.75052534,-73.94594845
55,2,true,true,1594115085,3161,W 76 St & Columbus Ave,40.7801839724239,-73.9772853255272
7,22,true,true,1594115085,3837,Broadway & Kosciuszko St,40.69329,-73.92852
4,42,true,true,1594115085,484,W 44 St & 5 Ave,40.75500254,-73.98014437
12,9,true,true,1594115085,248,Laight St & Hudson St,40.72185379,-74.00771779
20,19,true,true,1594115085,327,Vesey Pl & River Terrace,40.7153379,-74.01658354
11,19,true,true,1594115085,3307,West End Ave & W 94 St,40.7941654,-73.974124
51,3,true,true,1594115085,3707,Lexington Ave & E 26 St,40.741459,-73.983293
15,4,true,true,1594115085,3619,Newtown Ave & 23 St,40.7713615,-73.9246145
12,8,true,true,1594115085,3347,Van Brunt St & Wolcott St,40.6773429,-74.01275056
8,9,true,true,1594115085,3852,Stewart Ave & Johnson Ave,40.70869,-73.92587
12,19,true,true,1594114954,b347e314d1a3b9d27875b46ce3fd7f70,China Basin St at 3rd St,37.7719996,-122.3899698
33,6,true,true,1594115085,320,Leonard St & Church St,40.717571,-74.005549
13,26,true,true,1594115085,3350,W 100 St & Broadway,40.7973721,-73.97041192
0,39,true,true,1594115085,3724,7 Ave & Central Park South,40.7667405590595,-73.9790689945221
6,18,true,true,1594115085,3618,27 St & Hunter St,40.7485,-73.941275
22,16,true,true,1594115085,3372,E 74 St & 1 Ave,40.7689738,-73.95482273
12,15,true,true,1594115085,3558,Bergen St & Vanderbilt Ave,40.6794388,-73.9680438
15,5,true,true,1594114954,2fb08bbb4e84e2bd98f6c151d008e250,Chestnut St at Van Ness Ave,37.802288386148,-122.424508631229
19,0,true,true,1594115085,3393,Richards St & Delavan St,40.6794327,-74.00785041
21,9,true,true,1594115085,3738,Delancey St & Eldridge St,40.719383,-73.991479
9,10,true,true,1594114954,3e4a340888aa808d7bbae5d2372c06dc,San Salvador St at 9th St,37.333955,-121.877349
12,6,true,true,1594114955,059af05c37addf83badc457996fe45eb,Delmas Ave and San Fernando St,37.3302641,-121.8977018
6,20,true,true,1594114954,42d52309deeefe16d09e98539d8d72a1,The Embarcadero at Pier 38,37.7829260870441,-122.387920618057
17,13,true,true,1594115085,503,E 20 St & Park Ave,40.73827428,-73.98751968
7,34,true,true,1594115085,3296,E 93 St & 2 Ave,40.7824541752799,-73.9489196240902
15,7,true,true,1594114954,f30ac85eba75d23a161e3ac8a112a6c6,17th St at Valencia St,37.7633158,-122.4219039
2,21,true,true,1594115085,3931,Morris Ave & E 142 St,40.814469,-73.924963
5,14,true,true,1594115085,3811,27 Ave & 3 St,40.77485,-73.9342
6,13,true,true,1594115085,3946,St Nicholas Ave & W 137 St,40.818477,-73.947568
8,18,true,true,1594115085,3600,31 Ave & Steinway St,40.7611488,-73.9170071
21,1,true,true,1594115085,3855,Frost St & Debevoise Ave,40.71882,-73.93948
14,5,true,true,1594114955,e14686289c6158d279b29ef56cae6582,Greenwich St at Webster St,37.799207926286,-122.434121668339
25,3,true,true,1594115085,3389,Carroll St & Columbia St,40.6830456,-74.00348559
27,15,true,true,1594115085,401,Allen St & Rivington St,40.72019576,-73.98997825
42,0,true,true,1594115085,3068,Humboldt St & Varet St,40.7031724,-73.940636
12,7,true,true,1594114954,d54612ee1577923ef1aef60393aa07c7,24th St at Chattanooga St,37.7518194,-122.4266139
1,17,true,true,1594115085,3196,Riverview Park,40.7443187,-74.0439909
19,0,true,true,1594115085,421,Clermont Ave & Park Ave,40.69573398,-73.97129668
5,16,true,true,1594115085,3194,McGinley Square,40.7253399253558,-74.0676221251488
3,16,true,true,1594114954,f83da983e1b1de735ef62006310c76ba,55th St at Telegraph Ave,37.8401858,-122.2618225
2,25,true,true,1594115085,3172,W 74 St & Columbus Ave,40.7785669,-73.97754961
26,1,true,true,1594115085,3117,Franklin St & Dupont St,40.73564,-73.95866
11,4,true,true,1594114954,8924b980effba05ac4610a4abd37839e,Sonora Ave at 1st St,37.3640604622588,-121.911731958389
7,17,true,true,1594115085,3676,Van Brunt St & Van Dyke St,40.6758329439129,-74.0147262811661
21,0,true,true,1594115085,3340,Wolcott St & Dwight St,40.6753274,-74.0100698
15,8,true,true,1594114954,46e7f1749ea844af22fd4985f237a7a4,Bancroft Way at Telegraph Ave,37.8688126,-122.258764
2,17,true,true,1594115085,3892,38 Ave & 29 St,40.75473,-73.93367
22,5,true,true,1594114954,b424440d8b6dbf63f5932f39656b1bc3,Buchanan St at North Point St,37.8042720198515,-122.433536946774
9,34,true,true,1594115085,3285,W 87 St & Amsterdam Ave,40.78839,-73.9747
0,23,true,true,1594115085,3125,45 Rd & 11 St,40.74708586,-73.94977234
1,27,true,true,1594115085,3309,E 97 St & 3 Ave,40.7859201,-73.94860294
19,7,true,true,1594115085,3905,4 Ave & E 12 St,40.732647,-73.99011
21,6,true,true,1594114954,2367c9313860a8dbae94ac5045768995,Berkeley Civic Center,37.8690599,-122.270556
6,19,true,true,1594115085,3523,24 Ave & 29 St,40.7729,-73.916142
19,44,true,true,1594115085,359,E 47 St & Park Ave,40.75510267,-73.97498696
22,3,true,true,1594115085,481,S 3 St & Bedford Ave,40.71260486,-73.96264403
8,19,true,true,1594114955,23c911eba61c38bd79e4df21cf9a8bc6,Webster St at Grove St,37.7770527,-122.4295585
8,11,true,true,1594114954,967a7d65b042ed46b27f0f43ffa5af28,Arguello Blvd at Geary Blvd,37.7814676153782,-122.458806037903
20,9,true,true,1594115085,3243,E 58 St & 1 Ave (NE Corner),40.758923863777,-73.9622622728348
12,10,true,true,1594115085,3876,Forest Ave & Summerfield St,40.69922,-73.89795
6,45,true,true,1594115085,523,W 38 St & 8 Ave,40.75466591,-73.99138152
20,5,true,true,1594114954,5cf229224ed4bd986fae2273573dbc6b,Grove St at Gough St,37.7778700702239,-122.422952950001
4,26,true,true,1594115085,3338,2 Ave & E 99 St,40.7862586,-73.94552579
20,6,true,true,1594115085,3221,47 Ave & 31 St,40.743,-73.93561
41,10,true,true,1594115085,3134,3 Ave & E 62 St,40.76312584,-73.96526895
12,8,true,true,1594114955,8ecedfe82a3e35413e8a45da10ace67b,Broadway at 40th St,37.8277573,-122.2567156
13,9,true,true,1594114954,ad26540e1125e68ab4879dc6fae3af6d,10th St at Mission St,37.3556926512464,-121.892251074314
42,5,true,true,1594115085,476,E 31 St & 3 Ave,40.74394314,-73.97966069
11,15,true,true,1594114955,0fac71620fa19bbcbe3224593ed06c3f,O'Farrell St at Masonic Ave,37.7811305516987,-122.447374463081
17,12,true,true,1594115085,174,E 25 St & 1 Ave,40.7381765,-73.97738662
0,38,true,true,1594115085,3282,5 Ave & E 88 St,40.78307,-73.95939
6,20,true,true,1594114955,086b31d113c141a26d19612139ad8956,Webster St at O'Farrell St,37.783520835261,-122.431157827377
25,2,true,true,1594115085,3113,Greenpoint Ave & Manhattan Ave,40.73026,-73.95394
10,17,true,true,1594114954,ca5e6d6274db743fd9930b284eb903a9,Folsom St at 9th St,37.7737172,-122.4116467
12,18,true,true,1594115085,3789,Fulton St & Irving Pl,40.68186,-73.959432
9,18,true,true,1594115085,3674,Jay St & York St,40.7014031725772,-73.9867267012596
5,14,true,true,1594115085,3955,St Mary's St & Jackson Ave,40.808891,-73.91081
39,7,true,true,1594115085,168,W 18 St & 6 Ave,40.73971301,-73.99456405
17,5,true,true,1594115085,302,Avenue D & E 3 St,40.72082834,-73.97793172
9,9,true,true,1594114955,c8131aed6f3df2f78149eb338df66e66,San Pablo Ave at 27th St,37.8178269,-122.2756976
13,5,true,true,1594114955,f72a227c01e328e88de3e27e883b5a42,Emeryville Public Market,37.8405211669497,-122.293528318405
14,51,true,true,1594115085,453,W 22 St & 8 Ave,40.74475148,-73.99915362
20,7,true,true,1594115085,2002,Wythe Ave & Metropolitan Ave,40.716887,-73.963198
1,17,true,true,1594115085,3595,35 St & Broadway,40.760339,-73.9222427
18,7,true,true,1594115085,3321,Clinton St & Union St,40.6831164,-73.99785267
13,6,true,true,1594114955,5d6f80bbdf9b483b9e3a78830df93e19,Arguello Blvd at Edward St,37.7784869863975,-122.458645105362
35,1,true,true,1594115085,502,Henry St & Grand St,40.714211,-73.981095
25,5,true,true,1594115085,224,Spruce St & Nassau St,40.71146364,-74.00552427
8,19,true,true,1594115085,3092,Berry St & N 8 St,40.7190095,-73.95852515
15,9,true,true,1594115085,3549,Grand Ave & Bergen St,40.678045,-73.962408
9,13,true,true,1594115085,3213,Van Vorst Park,40.71848892,-74.047726625
3,24,true,true,1594115085,364,Lafayette Ave & Classon Ave,40.68900443,-73.96023854
7,45,true,true,1594115085,505,6 Ave & W 33 St,40.74901271,-73.98848395
28,11,true,true,1594115085,3534,Frederick Douglass Blvd & W 117 St,40.805159,-73.954692
19,2,true,true,1594115085,3333,Columbia St & Lorraine St,40.6747055,-74.0075572
6,17,true,true,1594115085,3339,Berkeley Pl & 6 Ave,40.6765304,-73.97846879
2,35,true,true,1594115085,3790,Henry St & Middagh St,40.7003,-73.991581
18,5,true,true,1594115085,3052,Lewis Ave & Madison St,40.686312,-73.935775
23,47,true,true,1594115085,477,W 41 St & 8 Ave,40.75640548,-73.9900262
18,9,true,true,1594114954,679621279b937eda9558ca1ae02f748e,Parkmoor Ave at Race St,37.3167364784934,-121.910004615784
15,4,true,true,1594114954,b7c325ae70049e4e6f5a3564ec2697fe,Fell St at Stanyan St,37.7719511,-122.4537048
9,10,true,true,1594114954,cad9a547732685a295e62323fd9aa378,Paseo De San Antonio at 2nd St,37.333798,-121.886943
22,12,true,true,1594115085,2009,Catherine St & Monroe St,40.71117444,-73.99682619
20,26,true,true,1594115085,496,E 16 St & 5 Ave,40.73726186,-73.99238967
28,8,true,true,1594115085,3919,Wall St & South St,40.70437,-74.00637
19,13,true,true,1594115085,3737,Stanton St & Norfolk St,40.720747,-73.986274
20,23,true,true,1594115085,3139,E 72 St & Park Ave,40.7711828754066,-73.964094221592
6,21,true,true,1594114955,3962b15d560bc3563bcdd0e638d9f0f2,Heron's Head Park,37.7403217763913,-122.376784086227
14,17,true,true,1594115085,274,Lafayette Ave & Fort Greene Pl,40.68691865,-73.976682
6,20,true,true,1594115085,3693,N 11 St & Kent Ave,40.7224818863822,-73.9592193067074
29,2,true,true,1594115085,3112,Milton St & Franklin St,40.72906,-73.95779
4,29,true,true,1594115085,493,W 45 St & 6 Ave,40.7568001,-73.98291153
6,33,true,true,1594115085,3712,W 35 St & Dyer Ave,40.754691750226,-73.9974018931389
5,10,true,true,1594114954,63816efc067878fdff9a0d2a38531268,Ninth St at Heinz Ave,37.8539069616438,-122.289698123932
6,15,true,true,1594115085,4021,E 138 St & Grand Concourse,40.813224,-73.930605
7,28,true,true,1594115085,4009,Riverside Dr & W 145 St,40.827305,-73.951989
12,11,true,true,1594114955,a4d58de82f6475801e4bf6cf97ecd387,San Fernando St at 7th St,37.3371223728942,-121.883214712143
8,15,true,true,1594115085,3760,Willoughby Ave & Wyckoff Ave,40.705614,-73.92153
1,17,true,true,1594115085,3640,Journal Square,40.73367,-74.0625
11,8,true,true,1594115085,3913,Sands St Gate,40.699569,-73.979827
3,20,true,true,1594115085,3609,Vernon Blvd & 31 Ave,40.7692475,-73.9354504
38,1,true,true,1594115085,4037,Roosevelt Island Tramway,40.757284,-73.9536
1,42,true,true,1594115085,3539,W 116 St & Amsterdam Ave,40.8067581,-73.9607082
22,8,true,true,1594114954,db937467876feef9bb1695c3ea31779c,Clay St at Battery St,37.795001,-122.39997
7,11,true,true,1594114954,ca8bbd40ae8b3beb63c5cc63a1c73a0f,Telegraph Ave at Ashby Ave,37.8559558,-122.2597949
15,4,true,true,1594114954,73f8aa6ec3250de2a02cc0763f5a19eb,Mercado Way at Sierra Rd,37.371116413359,-121.881331801415
6,15,true,true,1594115085,3511,Adam Clayton Powell Blvd & W 115 St,40.802535,-73.9532423
12,7,true,true,1594115085,3939,Willow Ave & E 133 St,40.800933,-73.913863
9,15,true,true,1594115085,3351,E 102 St & 1 Ave,40.7869946,-73.94164802
16,6,true,true,1594115085,3774,Knickerbocker Ave & George St,40.704425,-73.92836
10,28,true,true,1594115085,3437,Riverside Dr & W 91 St,40.7931348098666,-73.9770036935806
12,14,true,true,1594114955,c2648d0ffed4d1f710ccaf79e9a304fa,Franklin St at 9th St,37.8005161,-122.2720799
4,14,true,true,1594115085,3048,Putnam Ave & Nostrand Ave,40.68402,-73.94977
11,16,true,true,1594115085,3329,Degraw St & Smith St,40.6829151,-73.99318208
1,10,true,true,1594114953,983514094dd808b1604da2dcfc2d09af,Fountain Alley at S 2nd St,37.3361883002906,-121.889276504517
1,42,true,true,1594115085,3536,W 116 St & Broadway,40.8082,-73.9641
3,37,true,true,1594115085,3336,E 97 St & Madison Ave,40.787801,-73.953559
6,14,true,true,1594115085,3997,5 Av & W 139 St,40.815484,-73.935856
9,17,true,true,1594114954,b2247b6dec3a4c153f9f983b2e36534b,Scott St at Golden Gate Ave,37.7789994,-122.4368608
44,24,true,true,1594115085,492,W 33 St & 7 Ave,40.75019995,-73.99093085
14,25,true,true,1594115085,3305,E 91 St & 2 Ave,40.7811222993417,-73.9496558904648
8,10,true,true,1594115085,120,Lexington Ave & Classon Ave,40.68676793,-73.95928168
13,16,true,true,1594114954,28b5052c0d23c16fe1a40626212c68ab,Grove St at Masonic Ave,37.7748362941335,-122.446545660496
4,26,true,true,1594115085,3864,Central Ave & Covert St,40.68929,-73.90951
35,1,true,true,1594115085,4036,Motorgate,40.7639089,-73.9477213
17,8,true,true,1594115085,3377,Carroll St & Bond St,40.6786115,-73.99037292
8,11,true,true,1594115085,3042,Fulton St & Utica Ave,40.6794268,-73.9298911
36,4,true,true,1594115085,326,E 11 St & 1 Ave,40.72953837,-73.98426726
1,15,true,true,1594115085,3923,Lincoln Ave & E 134 St,40.808484,-73.928803
14,1,true,true,1594114953,a4b234ab072402cbfcbd5e306588d9a9,Autumn Parkway at Coleman Ave,37.3413348,-121.9031829
17,3,true,true,1594114954,ed898b7f32d290732a31b0b519c1f7e3,Metro Dr at Technology Dr,37.3676780524081,-121.918794214726
4,18,true,true,1594114954,2320b4d9a10404fc609ec18aecbd07e8,Market St at 8th St,37.8036865,-122.282497
2,17,true,true,1594114954,a33259544fdf29498c75150d70c4cbae,Quesada Ave at 3rd St,37.7330928099092,-122.390972971916
3,30,true,true,1594115085,3721,31 St & Newtown Ave,40.7675487799971,-73.9209334552288
18,8,true,true,1594114954,4e4a339396983190a0ecaa5c61ddc18c,Jack London Square,37.796248,-122.279352
11,12,true,true,1594114955,d4dd785ae972a1c253a4b1b4c14ea507,17th & Folsom Street Park (17th St at Folsom St),37.7637085,-122.4152042
3,20,true,true,1594114954,4a2e731c87e9a1e07ad0f5c8a91efd4b,Haste St at College Ave,37.8664179405032,-122.253799438477
7,15,true,true,1594115085,3987,E 149 St & Jackson Ave,40.813135,-73.909235
2,16,true,true,1594115085,3930,E 142 St & 3 Ave,40.812735,-73.923697
13,16,true,true,1594115085,3369,E 82 St & East End Ave,40.7724607,-73.9468208
20,19,true,true,1594114955,76f3d32a941219346e34c87820139711,2nd St at Townsend St,37.780526,-122.390288
13,14,true,true,1594115085,268,Howard St & Centre St,40.71910537,-73.99973337
1,38,true,true,1594115085,3233,E 48 St & 5 Ave,40.7572456791173,-73.978059142828
9,16,true,true,1594115085,3355,E 66 St & Madison Ave,40.7680088930595,-73.9684528112412
3,23,true,true,1594115085,3610,Vernon Blvd & 30 Rd,40.770845,-73.934171
19,12,true,true,1594114954,1a8541216cf020de1dcf4f90c8fd0919,Esprit Park,37.7616343,-122.3906477
9,18,true,true,1594114955,9b4875d1e3afe31dbbc63bebf073d004,7th St at King St,37.7712290179337,-122.400886416435
8,11,true,true,1594115085,3590,Carroll St & Franklin Ave,40.6679411,-73.9588
11,24,true,true,1594114954,25ccddba147690ec254ca9e68d3c559d,Market St at Franklin St,37.7737932060887,-122.42123901844
8,11,true,true,1594114955,d05740e23c0ff3996e6f82112e4bbf64,27th St at MLK Jr Way,37.8170154,-122.2717615
24,6,true,true,1594114954,b6430702ecf05507fb3bc3365ed54489,Folsom St at 5th St,37.7806450925031,-122.402865886688
45,5,true,true,1594115085,3115,India St & Manhattan Ave,40.73232194,-73.9550858
6,28,true,true,1594115085,3518,Lenox Ave & W 126 St,40.808442,-73.9452087
6,13,true,true,1594115085,3868,Knickerbocker Ave & Halsey St,40.693,-73.90824
8,17,true,true,1594115085,3566,Crescent St & 35 Ave,40.7596276,-73.9321455
10,16,true,true,1594115085,3576,Park Pl & Vanderbilt Ave,40.6767,-73.969024
10,13,true,true,1594114954,e3ee0af16583df7911086ce15b2f6343,Garfield Square (25th St at Harrison St),37.7510171,-122.4119009
6,21,true,true,1594114954,cbe0501b53945e1a590ff4484798e0e6,O'Farrell St at Divisadero St,37.7824046019341,-122.439445853233
2,13,true,true,1594115085,3882,Norman St & Wyckoff Ave,40.69517,-73.90311
5,44,true,true,1594115085,2006,Central Park S & 6 Ave,40.76590936,-73.97634151
4,16,true,true,1594114955,459b3320afadd43ccb25acb82163c335,Turk Blvd at Stanyan St,37.7776093102933,-122.45462179184
12,23,true,true,1594114954,b735b2cab35ea7bdaff9b2ce7413984f,Davis St at Jackson St,37.79728,-122.398436
25,17,true,true,1594115085,3186,Grove St PATH,40.7195861164717,-74.0431174635887
25,19,true,true,1594115085,164,E 47 St & 2 Ave,40.75323098,-73.97032517
10,24,true,true,1594114954,e8fb930966a1c70ad954431f47ff8bc8,Powell St BART Station (Market St at 4th St),37.7863752686158,-122.40490436554
11,10,true,true,1594114954,3a4f1c6eed8bd54668f9300dc876656b,McKinnon Ave at 3rd St,37.736295872171,-122.389969825745
24,35,true,true,1594115085,455,1 Ave & E 44 St,40.75001986,-73.96905301
8,18,true,true,1594114953,98cf498d2fa09046f98abeb6a9e902ff,Hubbell St at 16th St,37.7664826964395,-122.398279309273
25,17,true,true,1594115085,3151,E 81 St & York Ave,40.7728384,-73.94989233
9,9,true,true,1594114954,c8b9c626ba04f7f362a88af23377d976,23rd Ave at Clement St,37.78199,-122.482807
2,23,true,true,1594115085,4006,E 147 St & Bergen Ave,40.814673,-73.91839
23,12,true,true,1594115085,3170,W 84 St & Columbus Ave,40.78499979,-73.97283406
8,10,true,true,1594115085,3193,Lincoln Park,40.7246050998869,-74.0784059464932
12,11,true,true,1594115085,3343,W 107 St & Columbus Ave,40.7997568,-73.9621128676
12,7,true,true,1594114955,2613bd4884bb78d12ed5ec7d34391cf9,San Francisco City Hall (Polk St at Grove St),37.77865,-122.41823
13,2,true,true,1594114955,3eae0d76df97ee93ae21a685af42538a,Willow St at Vine St,37.3184498,-121.8831724
16,14,true,true,1594115085,3699,W 50 St & 9 Ave,40.7636046779586,-73.9891795814037
20,6,true,true,1594114955,150f4a24a20a08ac0bd18199b7393ff0,Jackson Playground,37.7650259,-122.3987734
3,38,true,true,1594115085,486,Broadway & W 29 St,40.7462009,-73.98855723
12,11,true,true,1594115085,328,Watts St & Greenwich St,40.72405549,-74.00965965
15,4,true,true,1594114954,c58c5e00d5caeb09fab3509a349ac2ce,San Pablo Park,37.855783320302,-122.283126711845
20,3,true,true,1594114954,7bb8d66fe7b1db88c66142fe3da816c3,San Fernando St at 4th St,37.335885,-121.88566
1,18,true,true,1594114955,3367402e41d84a3c70c5056e5312bb24,Williams Ave at 3rd St,37.7292786517303,-122.39289611578
47,29,true,true,1594115085,501,FDR Drive & E 35 St,40.744219,-73.97121214
8,19,true,true,1594114955,a431cdd7c44ec9b167bee9612b5e9482,Jackson St at 5th St,37.3487586867448,-121.894797831774
27,28,true,true,1594115085,525,W 34 St & 11 Ave,40.75594159,-74.0021163
8,18,true,true,1594114955,66a7ad5350c2a4ecba31907e3faeebb5,Egbert Ave at Jennings St,37.7226299219322,-122.392496466637
16,7,true,true,1594115085,3421,Hoyt St & Warren St,40.6843549,-73.98901629
0,17,true,true,1594115085,4019,St. Ann's Av & Bruckner Blvd,40.803399,-73.919763
16,39,true,true,1594115085,228,E 48 St & 3 Ave,40.7546011026,-73.971878855
2,37,true,true,1594115085,3160,Central Park West & W 76 St,40.77896784,-73.97374737
8,9,true,true,1594115085,3903,Jefferson Ave & Evergreen Ave,40.68989,-73.91458
1,29,true,true,1594115085,3871,Bushwick Ave & Furman Ave,40.68281,-73.90623
5,13,true,true,1594115085,3049,Cambridge Pl & Gates Ave,40.68488,-73.96304
1,18,true,true,1594115085,3046,Marcus Garvey Blvd & Macon St,40.682601,-73.938037
35,4,true,true,1594115085,257,Lispenard St & Broadway,40.71939226,-74.00247214
5,22,true,true,1594114954,7ef616860128f1e359563871f977c210,Judson Ave at Gennessee St,37.7282815924528,-122.450695037842
15,13,true,true,1594115085,385,E 55 St & 2 Ave,40.75797322,-73.96603308
6,12,true,true,1594115085,3348,Coffey St & Conover St,40.677236,-74.015665
5,15,true,true,1594115085,3926,5 Ave & W 131 St,40.81014,-73.93973
3,26,true,true,1594115085,3503,Madison Ave & E 120 St,40.80295,-73.942954
1,68,true,true,1594115085,517,Pershing Square South,40.751581,-73.97791
8,11,true,true,1594115085,3758,George St & Wilson Ave,40.702997,-73.92997
3,16,true,true,1594115085,3061,Throop Ave & Myrtle Ave,40.69622937,-73.94371094
1,23,true,true,1594115085,3865,Knickerbocker Ave & Cooper St,40.69081,-73.90448
9,30,true,true,1594115085,3301,Columbus Ave & W 95 St,40.7919557,-73.968087
4,20,true,true,1594114955,98c24c05dd22720e562f0c3590fabfa4,Parker Ave at McAllister St,37.7761009126459,-122.453092932701
16,14,true,true,1594115085,3159,W 67 St & Broadway,40.77492513,-73.98266566
6,24,true,true,1594114954,6cc04baed9f0c06aa8d3f594579bc8a9,MacArthur BART Station,37.8284099730585,-122.26631462574
6,8,true,true,1594114955,5d6e0c578a1ddd55e642440bed2c6cce,Stanford Ave at Hollis St,37.8384435,-122.2886647
41,5,true,true,1594115085,3718,E 11 St & Avenue B,40.7274642069239,-73.9795041829348
13,6,true,true,1594115085,341,Stanton St & Mangin St,40.71782143,-73.97628939
3,22,true,true,1594115085,3415,Prospect Pl & 6 Ave,40.6793307,-73.97519523
13,14,true,true,1594114954,e941de3073caf24cb07ee3425c80e479,Broderick St at Oak St,37.7730627,-122.4390777
4,16,true,true,1594115085,3995,5 Ave & E 135 St,40.812191,-73.937838
12,7,true,true,1594114954,20506dc0614eddbe19dd917155bae3b7,17th St at Santa Clara St,37.3439846779821,-121.874384880066
9,16,true,true,1594115085,3579,Sterling Pl & Bedford Ave,40.672695,-73.954131
12,5,true,true,1594115085,3202,Newport PATH,40.7272235,-74.0337589
21,2,true,true,1594115085,3757,Stagg St & Morgan Ave,40.710681,-73.93372
6,13,true,true,1594114955,6ad0aba1d60a8bba74e69b3c7278acb8,Isabella St at San Pablo Ave,37.8149882304242,-122.274844050407
9,12,true,true,1594115085,3420,Douglass St & 3 Ave,40.6802133,-73.98432695
1,30,true,true,1594115085,3366,West End Ave & W 107 St,40.8021174,-73.9681805305
20,39,true,true,1594115085,3295,Central Park W & W 96 St,40.79127,-73.964839
27,8,true,true,1594115085,3409,Bergen St & Smith St,40.6867443,-73.99063168
2,23,true,true,1594115085,3877,Madison St & Forest Ave,40.70555,-73.90245
13,11,true,true,1594115085,3816,Metropolitan Ave & Vandervoort Ave,40.71429,-73.93323
18,5,true,true,1594114954,3a9baba8738c921ad820add914d8d365,Grand Ave at Perkins St,37.8088939339871,-122.256460189819
8,21,true,true,1594115085,3563,28 St & 36 Ave,40.757186,-73.932719
6,21,true,true,1594115085,3778,Irving Ave & DeKalb Ave,40.7027,-73.92095
12,11,true,true,1594115085,344,Monroe St & Bedford Ave,40.6851443,-73.95380904
1,16,true,true,1594115085,3910,Greene Ave & Grandview Ave,40.709697,-73.907856
8,19,true,true,1594115085,3535,Mt Morris Park W & W 120 St,40.804038,-73.945925
4,27,true,true,1594115085,244,Willoughby Ave & Hall St,40.69196035,-73.96536851
13,9,true,true,1594115085,229,Great Jones St,40.72743423,-73.99379025
0,23,true,true,1594115085,3954,Southern Blvd & E 142 St,40.807258,-73.907999
26,0,true,true,1594115085,3599,Franklin Ave & Empire Blvd,40.66314,-73.9605695
7,22,true,true,1594115085,3639,Harborside,40.7192517,-74.034234
15,8,true,true,1594114954,3b360d106be2aeada021d0498be74fd5,3rd St at Keyes St,37.3208661458892,-121.87627851963
17,8,true,true,1594115085,3850,Jefferson St & Cypress Ave,40.70907,-73.92157
17,6,true,true,1594115085,3469,India St & West St,40.7318140172097,-73.9599502086639
1,19,true,true,1594115085,3608,5 St & 51 Ave,40.7423737,-73.9566
11,10,true,true,1594115085,3603,31 Ave & 30 St,40.7647,-73.9240312
8,27,true,true,1594115085,3540,Morningside Ave & W 123 St,40.81,-73.9551508
10,17,true,true,1594114954,163b5f9e09347c12a46ee720138bf3c8,Bay St at Fillmore St,37.802635949749,-122.436288893223
18,0,true,true,1594115085,3330,Henry St & Bay St,40.6725058,-74.00494695
7,17,true,true,1594115085,3585,Union St & Bedford Ave,40.6691783,-73.9554162
7,12,true,true,1594114954,c0c37f106fa8f27da58b777b7681f9a8,29th St at Tiffany Ave,37.7440667,-122.4214722
12,3,true,true,1594114955,e69e4dce53bdbe1ffe17185ee72fdcae,Ninth St at Parker St,37.8588682,-122.2912095
6,23,true,true,1594115085,3963,Melrose Ave & E 150 St,40.816827,-73.917338
12,22,true,true,1594114955,1f42090bf33844e8a0c7c788ac26c867,Berry St at 4th St,37.77588,-122.39317
13,6,true,true,1594114954,74eca875c15c9468d4dbcece710bc596,1st St at San Carlos St,37.331167994222,-121.886937618256
16,10,true,true,1594114955,e4057435753640b4855f792619c151dd,S Van Ness Ave at Market St,37.774814,-122.418954
6,17,true,true,1594115085,418,Front St & Gold St,40.70224,-73.982578
7,16,true,true,1594114955,b5f7d134eef76458bdad1624fc3f0a3b,Ryland Park,37.342725,-121.895617
4,9,true,true,1594115085,3278,Monmouth and 6th,40.725685483629,-74.0487903356552
22,25,true,true,1594115085,354,Emerson Pl & Myrtle Ave,40.69363137,-73.96223558
15,21,true,true,1594115085,3739,Perry St & Greenwich Ave,40.735918,-74.000939
1,25,true,true,1594115085,335,Washington Pl & Broadway,40.72903917,-73.99404649
8,7,true,true,1594114955,1fe666d88bcb5b26629582c6d2a1165b,Williams Ave at Apollo St,37.7301675081509,-122.398963272572
0,39,true,true,1594115085,3246,Montague St & Clinton St,40.6942811413973,-73.9923003315926
21,9,true,true,1594115085,3917,Willoughby St & Ashland Pl,40.69178,-73.97877
9,37,true,true,1594115085,3689,W 104 St & Amsterdam Ave,40.799041392883,-73.9664947986603
2,32,true,true,1594115085,347,Greenwich St & W Houston St,40.728846,-74.008591
9,44,true,true,1594115085,464,E 56 St & 3 Ave,40.75934501,-73.96759673
16,6,true,true,1594114954,689893116ddb1b8dfab61c092330b00a,Valencia St at 24th St,37.7524278,-122.4206278
1,38,true,true,1594115085,3623,W 120 St & Claremont Ave,40.8109494,-73.9634
0,5,false,false,1594114955,d9f54ff90ab5ebf7383dd6a8541d48f1,10th Ave at E 15th St,37.7927143,-122.2487796
2,21,true,true,1594114954,94af59e59a08551d5808f6f4f7683343,Carroll Ave at 3rd St,37.7253751941352,-122.394019961357
1,21,true,true,1594115085,3896,Madison St & Seneca Ave,40.70183,-73.90625
6,52,true,true,1594115085,280,E 10 St & 5 Ave,40.73331967,-73.99510132
19,20,true,true,1594115085,439,E 4 St & 2 Ave,40.7262807,-73.98978041
1,45,true,true,1594115085,533,Broadway & W 38 St,40.75299641,-73.98721619
22,7,true,true,1594115085,128,MacDougal St & Prince St,40.72710258,-74.00297088
42,15,true,true,1594115085,3323,W 106 St & Central Park West,40.7981856,-73.9605909006
0,19,true,true,1594115085,3951,E 141 St & St Ann's Ave,40.808633,-73.916124
7,15,true,true,1594115085,3828,Eldert St & Bushwick Ave,40.68652,-73.91321
2,17,true,true,1594115085,3921,Willis Ave & Bruckner Blvd,40.805701,-73.925177
30,16,true,true,1594115085,3287,W 87 St & West End Ave,40.789622,-73.97757
6,15,true,true,1594115085,3047,Halsey St & Tompkins Ave,40.6823687,-73.944118
18,6,true,true,1594115085,530,11 Ave & W 59 St,40.7714967105444,-73.9904603362083
12,15,true,true,1594115085,3157,East End Ave & E 86 St,40.77518615,-73.94446054
4,18,true,true,1594115085,3780,Wyckoff Av & Stanhope St,40.703545,-73.917775
0,21,true,true,1594115085,3945,Amsterdam Ave & W 136 St,40.819746,-73.951819
23,30,true,true,1594115085,474,5 Ave & E 29 St,40.7451677,-73.98683077
6,13,true,true,1594114954,1b0c18aa2600cb61c4dc8594a02f4417,Broadway at 30th St,37.8193814,-122.2619284
11,23,true,true,1594115085,456,E 53 St & Madison Ave,40.7597108,-73.97402311
26,2,true,true,1594115085,3069,Lorimer St & Broadway,40.70411791,-73.94818595
15,15,true,true,1594115085,238,Bank St & Washington St,40.7361967,-74.00859207
0,0,false,false,1594115085,491,E 24 St & Park Ave S,40.74096374,-73.98602213
6,5,true,true,1594114954,48ae1a8e476b68de634e7f103c359b56,Santa Clara St at Almaden Blvd,37.333988,-121.894902
23,24,true,true,1594115085,3746,6 Ave & Broome St,40.7243083216022,-74.0047303587198
2,17,true,true,1594114954,9aabe0cff5a5e7c6b014dd2c163f1ebc,Fruitvale Ave at International Blvd,37.778058,-122.2254
11,22,true,true,1594115085,319,Fulton St & Broadway,40.711066,-74.009447
0,18,true,true,1594115085,3220,5 Corners Library,40.7349610200095,-74.0595030784607
14,4,true,true,1594115085,3453,Devoe St & Lorimer St,40.7133522622288,-73.9491033554077
7,54,true,true,1594115085,349,Rivington St & Ridge St,40.71850211,-73.98329859
27,3,true,true,1594115085,403,E 2 St & 2 Ave,40.72502876,-73.99069656
10,13,true,true,1594115085,3390,E 109 St & 3 Ave,40.79329668,-73.9432083
10,15,true,true,1594115085,3370,E 78 St & 2 Ave,40.7727966,-73.95577801
7,16,true,true,1594114955,a9250f9e08927a6c20a3f166036889db,Brannan St at 7th St,37.7726578770706,-122.403681278229
3,13,true,true,1594115085,3940,E 134 St & Walnut Ave,40.800425,-73.911034
2,19,true,true,1594115085,3568,34 St & 35 Ave,40.7569332,-73.9262231
11,15,true,true,1594115085,436,Hancock St & Bedford Ave,40.68216564,-73.95399026
26,35,true,true,1594115085,3177,W 84 St & Broadway,40.7867947,-73.977112
7,23,true,true,1594115085,3994,2 Ave & E 125 St,40.802554,-73.933509
7,25,true,true,1594115085,3791,Hoboken Ave at Monmouth St,40.7352083804536,-74.0469637513161
8,7,true,true,1594114954,501383f10b2cb7bd652149a50b5418fc,14th St at Mandela Pkwy,37.8107432,-122.2914153
18,20,true,true,1594115085,3881,12 Ave & W 125 St,40.818299,-73.960405
35,8,true,true,1594115085,507,E 25 St & 2 Ave,40.73912601,-73.97973776
5,61,true,true,1594115085,3164,Columbus Ave & W 72 St,40.7770575,-73.97898475
27,2,true,true,1594115085,3081,Graham Ave & Grand St,40.711863,-73.944024
26,1,true,true,1594115085,545,E 23 St & 1 Ave,40.736502,-73.97809472
6,9,true,true,1594114954,363a2381ec0d75a658698918d68d0edb,22nd St at Potrero Ave,37.756808,-122.405943
11,34,true,true,1594115085,167,E 39 St & 3 Ave,40.7489006,-73.97604882
11,8,true,true,1594114954,a8ecd18d2c44ea14d8a396eba32c3fcc,Miles Ave at Cavour St,37.8388,-122.258732
7,22,true,true,1594114954,b897eab1a16516ea4c47640297cc4409,Anza St at Collins St,37.78068,-122.450012
2,36,true,true,1594115085,3294,E 91 St & Park Ave,40.7835016,-73.955327
6,21,true,true,1594115085,3761,Cedar St & Myrtle Ave,40.697842,-73.926241
7,8,true,true,1594114954,eff2443c5e75c2a2c3a3ab87188227dd,Mint St at Mission St,37.782279529755,-122.407312989235
16,13,true,true,1594115085,412,Forsyth St & Canal St,40.7158155,-73.99422366
21,4,true,true,1594115085,3082,Hope St & Union Ave,40.71167351,-73.95141312
16,11,true,true,1594114954,718cefa9c37e218744ea0cc193a3129a,11th St at Bryant St,37.7700298,-122.4117258
3,22,true,true,1594115085,3847,Cedar St & Evergreen Ave,40.69671,-73.92807
15,11,true,true,1594115085,3658,W 18 St & 9 Ave,40.7435337324616,-74.0036755800247
11,12,true,true,1594114955,c978d0b507607e5cee77e5fc2e6caa7b,SAP Center,37.332692,-121.900084
6,17,true,true,1594114955,0eddf1befddc9f3a1264cc05bf1a5e6a,Parker St at Fulton St,37.8624644,-122.2647911
3,20,true,true,1594114955,5ea5e58b4dc5550721049acb54220651,Goettingen St at Bacon St,37.7269429662284,-122.406599521637
15,6,true,true,1594115085,3056,Kosciuszko St & Nostrand Ave,40.69072549,-73.95133465
14,21,true,true,1594114954,d94a66f24de908a615ce0a46f27a682b,Salesforce Transit Center (Natoma St at 2nd St),37.787492104386,-122.398284673691
11,12,true,true,1594114954,1a07a9e1057626b3844050832a2581bf,Mission Playground,37.7592103,-122.4213392
2,15,true,true,1594115085,3907,Central Ave & Melrose St,40.70112,-73.93039
6,17,true,true,1594115085,3361,Carroll St & 6 Ave,40.6740886,-73.9787282
21,6,true,true,1594114954,9c879543d1eb9b63a326430132968307,Laguna St at Hayes St,37.7764348192047,-122.426244020462
21,2,true,true,1594115085,3769,White St & Johnson Ave,40.707174,-73.93581
13,19,true,true,1594115085,2022,E 60 St & York Ave,40.759107,-73.959223
4,21,true,true,1594115085,3924,Lincoln Ave & E 138 St,40.810893,-73.927311
18,9,true,true,1594114954,702efcf347cec807f42b0c4c8c94c313,Church St at Duboce Ave,37.7700831,-122.4291557
5,14,true,true,1594114954,34288288721932498616db23008ea2af,Spear St at Folsom St,37.7896767,-122.3904285
0,26,true,true,1594115085,3763,Wyckoff Av & Jefferson St,40.707165,-73.923711
10,17,true,true,1594114954,3f186805ee4d05113537d886f7380780,Howard St at Beale St,37.789756,-122.394643
13,6,true,true,1594114954,327ee6e93c8618ca3581beedd9b4ff53,Evans Ave at Newhall St,37.742232,-122.386843
15,3,true,true,1594115085,3899,Manhattan Av & Leonard St,40.72084,-73.94844
4,19,true,true,1594115085,3053,Marcy Ave & Lafayette Ave,40.6900815,-73.947915
20,39,true,true,1594115085,369,Washington Pl & 6 Ave,40.73224119,-74.00026394
6,20,true,true,1594115085,3495,E 114 St & 1 Ave,40.7945663,-73.9362541
5,22,true,true,1594115085,3880,Willoughby Ave & Onderdonk Ave,40.7098,-73.91727
39,4,true,true,1594115085,376,John St & William St,40.70862144,-74.00722156
13,15,true,true,1594115085,3335,Union St & 4 Ave,40.6772744,-73.98282002
15,7,true,true,1594114954,a840a66dcf537eb53ff86c7ed469f491,West St at 40th St,37.8302232,-122.2709501
10,10,true,true,1594114954,b7d2d18241329be106efbcb2dd3fa13c,Newbury Park Dr at King Rd,37.3655356585599,-121.867966353893
13,11,true,true,1594115085,2008,Little West St & 1 Pl,40.70569254,-74.01677685
3,14,true,true,1594115085,3901,Stanhope St & Fairview Ave,40.70998,-73.91116
7,11,true,true,1594114955,d77edd357a87177dcc4621ef883abb5d,28th Ave at Geary Blvd,37.779673,-122.48797
3,13,true,true,1594115085,3874,Menahan St & Seneca Ave,40.70461,-73.91054
22,20,true,true,1594115085,3152,3 Ave & E 71 St,40.76873687,-73.96119945
18,4,true,true,1594115085,3185,City Hall,40.7177325,-74.043845
18,5,true,true,1594114954,1596efd5fa00679aefd3b5d3d1b2ef26,Addison St at Fourth St,37.866249,-122.2993708
14,4,true,true,1594115085,3273,Manila & 1st,40.72165072488,-74.0428841114044
6,13,true,true,1594114955,6e9e35437da1d86e4c843f5d42c101b3,Bryant St at 6th St,37.7759102223334,-122.402575006736
4,40,true,true,1594115085,3538,W 110 St & Amsterdam Ave,40.802692,-73.96295
3,18,true,true,1594115085,3498,Pleasant Ave & E 120 St,40.7974772,-73.9311847
20,2,true,true,1594115085,3456,Jackson St & Leonard St,40.7163803197356,-73.9482128620148
13,5,true,true,1594115085,373,Willoughby Ave & Walworth St,40.69331716,-73.95381995
19,12,true,true,1594115085,3508,St Nicholas Ave & Manhattan Ave,40.809725,-73.953149
4,19,true,true,1594114954,9beee70db0437cf4bd24078239213bb6,Gish Rd at 1st St,37.3618668002592,-121.909315288067
0,21,true,true,1594115085,3925,E 138 St & Canal St W,40.812304,-73.929153
5,18,true,true,1594115085,270,Adelphi St & Myrtle Ave,40.69308257,-73.97178913
11,12,true,true,1594115085,3497,Pleasant Ave & E 116 St,40.7949879,-73.9333349
16,2,true,true,1594115085,3094,Graham Ave & Withers St,40.7169811,-73.94485918
20,1,true,true,1594114955,4e8692f7a9eae9f0575945f02a87ccce,Alamo Square (Steiner St at Fulton St),37.7775467701732,-122.43327409029
3,16,true,true,1594114955,cbdeb72b794ae1050a177368bee1364e,65th St at Hollis St,37.8467842,-122.2913761
27,19,true,true,1594115085,3144,E 81 St & Park Ave,40.77677702,-73.9590097
21,10,true,true,1594115085,3083,Bushwick Ave & Powers St,40.71247661,-73.94100005
29,20,true,true,1594115085,3734,E 58 St &  1 Ave (NW Corner),40.759125,-73.962658
24,2,true,true,1594115085,297,E 15 St & 3 Ave,40.734232,-73.986923
4,11,true,true,1594114954,d63f2433c8e67e0db4df7a87e5fb38e3,Cesar Chavez St at Dolores St,37.7478584,-122.4249863
7,51,true,true,1594115085,3141,1 Ave & E 68 St,40.76500525,-73.95818491
4,17,true,true,1594115085,3832,Central Ave & Weirfield St,40.69055,-73.91181
0,19,true,true,1594115085,3861,Menahan St & Wyckoff Ave,40.70113,-73.91422
6,13,true,true,1594114954,65097799f269d187692b073a83c0d4d3,Haste St at Telegraph Ave,37.8660431,-122.2588044
7,23,true,true,1594115085,3410,Dean St & Hoyt St,40.6864442,-73.98759104
50,15,true,true,1594115085,303,Mercer St & Spring St,40.72362738,-73.99949601
23,2,true,true,1594115085,3322,12 St & 4 Ave,40.668603,-73.9904394
22,8,true,true,1594115085,3109,Banker St & Meserole Ave,40.72606,-73.95621
22,5,true,true,1594114954,0d8525708edd96daf05c39b671e8889d,7th Ave at Irving St,37.7634336102324,-122.464063167572
10,9,true,true,1594114954,6990760eb8be3fa93313672d7be369e6,Union St at 10th St,37.8072393,-122.2893702
11,47,true,true,1594115085,144,Nassau St & Navy St,40.69839895,-73.98068914
31,8,true,true,1594115085,531,Forsyth St & Broome St,40.71893904,-73.99266288
32,7,true,true,1594115085,3818,Calyer St & Jewel St,40.72984,-73.94839
19,2,true,true,1594115085,3756,White St & Moore St,40.704508,-73.9351
6,24,true,true,1594115085,3122,48 Ave & 5 St,40.7443632870669,-73.9558732509613
15,20,true,true,1594115085,3375,3 Ave & E 72 St,40.7699426,-73.96060712
6,16,true,true,1594115085,4000,Lenox Ave & W 144 St,40.819783,-73.936521
9,18,true,true,1594115085,3304,6 Ave & 9 St,40.668127,-73.98377641
11,21,true,true,1594115085,3236,W 42 St & Dyer Ave,40.7589848139963,-73.9937996864319
20,0,true,true,1594115085,241,DeKalb Ave & S Portland Ave,40.68981035,-73.97493121
18,0,true,true,1594115085,3817,Withers St & Kingsland Ave,40.71773,-73.94051
9,15,true,true,1594115085,3766,Sharon St & Olive St,40.715353,-73.93856
7,8,true,true,1594114955,318839be2a66c41af52177023d7545cd,Saint James Park,37.339301,-121.889937
12,18,true,true,1594115085,3628,Lenox Ave & W 117 St,40.8025566,-73.9490782
17,10,true,true,1594115085,82,St James Pl & Pearl St,40.71117416,-74.00016545
7,20,true,true,1594115085,3520,Adam Clayton Powell Blvd & W 118 St,40.804372,-73.951475
5,0,true,true,1594115085,3681,Grand St,40.7151776773203,-74.0376833081245
15,24,true,true,1594115085,3147,E 85 St & 3 Ave,40.77801203,-73.95407149
6,9,true,true,1594114954,bafd382d63b84005dec3dcfc5a326e98,Guerrero Park,37.7457387961833,-122.422140240669
10,12,true,true,1594114954,3841fc554143a337540447bec2f0fdb5,10th St at Empire St,37.349426308788,-121.887618899345
1,28,true,true,1594115085,3537,Carlton Ave & Dean St,40.6809741,-73.9710097
6,21,true,true,1594115085,3417,Baltic St & 5 Ave,40.6795766,-73.97854971
1,26,true,true,1594115085,3555,28 St & 41 Ave,40.751047,-73.93797
8,11,true,true,1594115085,3530,Crescent St & Ditmars Blvd,40.7787185,-73.9145645
13,6,true,true,1594115085,3961,Morris Ave & E 153 St,40.820036,-73.921411
9,11,true,true,1594114954,81cc789c1070340c1930450769536ea2,Oregon St at Adeline St,37.8575672,-122.2675583
2,18,true,true,1594115085,3256,Pier 40 - Hudson River Park,40.7277140777778,-74.011295735836
9,13,true,true,1594115085,3398,Smith St & 9 St,40.6746957,-73.99785768
7,6,true,true,1594114954,3cfc266f34c8daf3fa59119deca078ea,Gennessee St at Monterey Blvd,37.7316566899845,-122.451121509075
5,14,true,true,1594114954,af277a4997575219024a717b9bade2e0,16th St at Prosper St,37.764285,-122.4318042
22,2,true,true,1594115085,3397,Court St & Nelson St,40.6763947,-73.99869893
4,16,true,true,1594115085,3870,Melrose St & Broadway,40.697481,-73.935877
7,25,true,true,1594115085,3545,Broadway & W 122 St,40.8120562,-73.9612547
34,6,true,true,1594114954,113b9406090fbc8b512ee504634da501,Glen Park BART Station,37.7328128005294,-122.434140443802
10,21,true,true,1594115085,3493,E 118 St & 3 Ave,40.799139,-73.9389152
14,8,true,true,1594114954,ca0d2445e913702b584e668333dfd3d4,7th Ave at Clement St,37.7824385197767,-122.465377449989
11,12,true,true,1594115085,245,Myrtle Ave & St Edwards St,40.69327018,-73.97703874
6,8,true,true,1594114954,03cc61af40764524160f132da0f3f681,Woolsey St at Sacramento St,37.8505777,-122.2781754
42,10,true,true,1594115085,285,Broadway & E 14 St,40.73454567,-73.99074142
9,10,true,true,1594115085,3755,DeKalb Ave & Franklin Ave,40.6906480708294,-73.9574617892504
9,10,true,true,1594114953,a3b487ad4ac93ab3e9f9654f87ed8c1e,Locust St at Grant St,37.3229796,-121.8879312
0,51,true,true,1594115085,3165,Central Park West & W 72 St,40.7757937668367,-73.9762057363987
30,5,true,true,1594115085,3690,Park Pl & Church St,40.7133418427591,-74.0093551576138
20,1,true,true,1594115085,3887,Flushing Ave & Woodward Ave,40.71246,-73.91873
8,11,true,true,1594115085,3332,Degraw St & Hoyt St,40.681990442707,-73.9907902479172
8,26,true,true,1594115085,3593,31 St & Broadway,40.761584,-73.925921
16,15,true,true,1594115085,398,Atlantic Ave & Furman St,40.69165183,-73.9999786
16,23,true,true,1594115085,3318,2 Ave & E 96 St,40.7839636,-73.9471673
6,17,true,true,1594115085,3846,Central Ave & Himrod St,40.69676,-73.92302
42,24,true,true,1594115085,450,W 49 St & 8 Ave,40.76227205,-73.98788205
25,6,true,true,1594115085,471,Grand St & Havemeyer St,40.71286844,-73.95698119
8,6,true,true,1594115085,3270,Jersey & 6th St,40.7252891078113,-74.0455716848373
16,11,true,true,1594114954,b1385ff2e23b82e61c668a9fc8275142,Jackson St at 11th St,37.8000016311888,-122.266438007355
0,24,true,true,1594115085,3840,Putnam Ave & Wyckoff Ave,40.69811,-73.90904
12,42,true,true,1594115085,293,Lafayette St & E 8 St,40.7302066052995,-73.9910262823105
21,10,true,true,1594115085,3382,Carroll St & Smith St,40.680611,-73.99475825
6,18,true,true,1594115085,4023,Adam Clayton Powell Blvd & W 141 St,40.819241,-73.941057
8,9,true,true,1594115085,3928,Adam Clayton Powell Blvd & W 132 St,40.813539,-73.94521
31,11,true,true,1594115085,380,W 4 St & 7 Ave S,40.73401143,-74.00293877
10,31,true,true,1594115085,3142,1 Ave & E 62 St,40.7612274,-73.96094022
10,13,true,true,1594114954,a73276ab34067c112ab469c5107e1d2c,2100 Powell St,37.8395430826656,-122.298717722297
0,0,false,false,1594114954,02744ef00b430de0440ab88ecff71b2d,Webster St at 2nd St,37.795194764386,-122.273969650269
5,15,true,true,1594115085,3050,Putnam Ave & Throop Ave,40.6851532,-73.94111
10,9,true,true,1594115085,3344,Pioneer St & Van Brunt St,40.679043,-74.011169
1,18,true,true,1594115085,3704,47 Ave & Skillman Ave,40.7437524099784,-73.941764831543
54,22,true,true,1594115085,482,W 15 St & 7 Ave,40.73935542,-73.99931783
8,29,true,true,1594115085,3156,E 72 St & York Ave,40.76663814,-73.95348296
13,14,true,true,1594114953,a730b0443ebed771ffc0c413ccc47eec,Bryant St at 2nd St,37.7831719893153,-122.393572032452
35,20,true,true,1594115085,247,Perry St & Bleecker St,40.73535398,-74.00483091
7,22,true,true,1594115085,3158,W 63 St & Broadway,40.77163851,-73.98261428
5,26,true,true,1594115085,3500,E 115 St & Madison Ave,40.7989445,-73.944846
11,16,true,true,1594114955,074ef2e71ff08fd484f93827ed83dafd,Grove St at Divisadero,37.775946,-122.4377775
4,23,true,true,1594115085,3617,28 Ave & 35 St,40.7671,-73.9169858
6,17,true,true,1594114954,e28f658f5100e41a80d7896d356bc7f6,Auzerais Ave at Los Gatos Creek Trail,37.3211818342673,-121.903089880943
4,15,true,true,1594114954,60bcfd5a383480ef7a42340450e1e506,Howard St at 2nd St,37.7869282567877,-122.398113012314
13,1,true,true,1594115085,3184,Paulus Hook,40.7141454,-74.0335519
0,19,true,true,1594115085,3872,Hancock St & Wyckoff Ave,40.6972,-73.90674
3,16,true,true,1594114954,2982214cb79a3c6269039c95ab08ca38,Illinois St at Cesar Chavez St,37.7502000102521,-122.386567443609
7,15,true,true,1594114954,f00345a08621722a4e680cf784706a3c,Fulton St at Bancroft Way,37.8677892,-122.2658964
19,11,true,true,1594114955,be206c6cb9c61276d1e3b9ad2a0b8060,South San Jose State (7th St at Humboldt St),37.3203158210865,-121.87009871006
2,28,true,true,1594115085,3654,31 St & Northern Blvd,40.7518695142188,-73.933492898941
28,13,true,true,1594115085,3135,E 75 St & 3 Ave,40.77112927,-73.95772297
7,58,true,true,1594115085,281,Grand Army Plaza & Central Park S,40.7643971,-73.97371465
14,24,true,true,1594115085,3178,Riverside Dr & W 78 St,40.78414472,-73.98362492
3,21,true,true,1594115085,4002,W 144 St & Adam Clayton Powell Blvd,40.820877,-73.939249
22,34,true,true,1594115085,461,E 20 St & 2 Ave,40.73587678,-73.98205027
11,15,true,true,1594115085,3531,Frederick Douglass Blvd & W 129 St,40.8125511,-73.9492286
7,11,true,true,1594115085,3678,Fairmount Ave,40.7257261374256,-74.0719592571259
10,5,true,true,1594114954,569d5c153e5380ea2f286b48217ec566,Fifth St at Delaware St,37.8704071154654,-122.299675941467
17,10,true,true,1594115085,261,Johnson St & Gold St,40.69474881,-73.98362464
33,1,true,true,1594115085,394,E 9 St & Avenue C,40.72521311,-73.97768752
10,11,true,true,1594115085,3192,Liberty Light Rail,40.7112423,-74.0557013
2,21,true,true,1594115085,3843,Myrtle Ave & Grove St,40.69905,-73.91516
26,0,true,true,1594115085,3668,Leonard St & Nassau Ave,40.7239567849954,-73.9498436450958
7,24,true,true,1594115085,3065,Union Ave & Wallabout St,40.70029511,-73.95032283
0,0,false,false,1594114955,ca8eeb013a7c04731be820a3205b8347,6th Ave at E 12th St (Temporary Location),37.794396,-122.253842
1,16,true,true,1594115085,3873,Madison St & Cypress Ave,40.70068,-73.90742
0,0,false,false,1594115085,3736,E 12 St & Ave C,40.727243,-73.976831
6,24,true,true,1594115085,416,Cumberland St & Lafayette Ave,40.68753406,-73.97265183
6,13,true,true,1594114954,e1217bf29c178d096c6e92ea8dc36453,Madison St at 17th St,37.8040367840236,-122.262409329414
16,13,true,true,1594115085,3900,Morgan Ave & Lombardy St,40.72226,-73.93889
4,20,true,true,1594115085,437,Macon St & Nostrand Ave,40.6809833854,-73.9500479759
9,14,true,true,1594114954,c859a624e28f1e670e9b7f8b2276c934,Clement St at 32nd Ave,37.781722,-122.492844
31,8,true,true,1594115085,360,William St & Pine St,40.70717936,-74.00887308
22,3,true,true,1594115085,3085,Roebling St & N 4 St,40.71469,-73.95739
29,1,true,true,1594115085,3918,Avenue D & E 8 St,40.72387,-73.975767
10,9,true,true,1594114955,c2e3051962238764d5e968e6f4544485,10th St at University Ave,37.8690604754539,-122.293399572372
9,11,true,true,1594115085,3851,Metropolitan Ave & Stewart Ave,40.71401,-73.92793
25,5,true,true,1594115085,3232,Bond St & Fulton St,40.6896218879033,-73.9830426871777
47,1,true,true,1594115085,363,West Thames St,40.70834698,-74.01713445
7,18,true,true,1594115085,3616,Steinway St & 28 Ave,40.7656251,-73.9136695
37,4,true,true,1594115085,3815,E 51 St & 2 Ave,40.755293,-73.967641
2,37,true,true,1594115085,3472,W 15 St & 10 Ave,40.742753828659,-74.0074735879898
3,27,true,true,1594115085,3349,Grand Army Plaza & Plaza St West,40.6729679,-73.97087984
2,27,true,true,1594115085,3542,Amsterdam Ave & W 119 St,40.8086249,-73.9596214
6,21,true,true,1594115085,399,Lafayette Ave & St James Pl,40.68851534,-73.9647628
16,4,true,true,1594115085,3859,Lorimer St & Calyer St,40.72795,-73.95414
7,60,true,true,1594115085,3799,6 Ave & W 34 St,40.74964,-73.98805
13,17,true,true,1594114954,47e30e549ebbe3b8fad38f2df2f1ad59,Bancroft Way at College Ave,37.8693603,-122.2543374
4,11,true,true,1594114954,1736d145e5ef5447a53cc9f100701ccc,Telegraph Ave at 58th St,37.8444927,-122.261351
24,17,true,true,1594115085,3359,E 68 St & Madison Ave,40.7691572,-73.96703464
3,12,true,true,1594115085,3612,30 Ave & 21 St,40.7703743,-73.9286078
23,10,true,true,1594115085,366,Clinton Ave & Myrtle Ave,40.693261,-73.968896
18,1,true,true,1594114955,58db51f0d78c1f40a04883873b5b7c64,Market St at Park St,37.3324263012521,-121.890349388123
10,33,true,true,1594115085,540,Lexington Ave & E 29 St,40.7431155537649,-73.9821535348892
44,2,true,true,1594115085,242,Carlton Ave & Flushing Ave,40.697787,-73.973736
30,2,true,true,1594115085,3906,West St & Liberty St,40.711444,-74.014847
6,13,true,true,1594115085,3589,Broadway & 12 St,40.7668,-73.9347774
17,10,true,true,1594115085,350,Clinton St & Grand St,40.71559509,-73.9870295
8,16,true,true,1594114954,eace607a9b4ea4ea7b9fe0e5c17b04e7,Spruce St at California St,37.7865784995365,-122.45342284441
6,11,true,true,1594115085,3564,21 St & 36 Ave,40.7601853,-73.9362726
8,10,true,true,1594114953,4e3d30015e2540b96ddcfc11dcc42643,George St at 1st St,37.3475925744389,-121.899662017822
14,13,true,true,1594115085,536,1 Ave & E 30 St,40.74144387,-73.97536082
4,15,true,true,1594115085,3557,40 Ave & 9 St,40.75742,-73.945133
9,11,true,true,1594115085,3827,Halsey St & Broadway,40.68565,-73.91564
10,10,true,true,1594115085,291,Madison St & Montgomery St,40.713126,-73.984844
5,17,true,true,1594115085,4017,E 138 St & 5 Av,40.81449,-73.936153
4,11,true,true,1594114955,ff03a6199ba2f74b66752643531826ec,Doyle St at 59th St,37.8419238,-122.2880451
14,19,true,true,1594115085,3533,St. Nicholas Ave & W 126 St,40.8114323,-73.9518776
12,9,true,true,1594115085,3319,14 St & 5 Ave,40.666287,-73.98895053
2,21,true,true,1594115085,3306,10 St & 7 Ave,40.6662078,-73.98199886
36,1,true,true,1594115085,3735,W 30 St & 10 Ave,40.752694,-74.002353
6,32,true,true,1594115085,3169,Riverside Dr & W 82 St,40.78720869,-73.98128127
14,8,true,true,1594114955,07baaf6053a8f6bbd3820c137207c915,17th Ave at Geary Blvd,37.7807198857556,-122.47610360384
2,17,true,true,1594115085,3965,E 149 St & Eagle Ave,40.814046,-73.91186
17,4,true,true,1594115085,3673,Dean St & Franklin Ave,40.6775920693738,-73.955637216568
11,16,true,true,1594114955,0d1cc38593e42fd252223058f5e2a1e3,Koshland Park,37.7734139699734,-122.427316904068
14,25,true,true,1594115085,526,E 33 St & 5 Ave,40.74765947,-73.98490707
22,8,true,true,1594114955,780cbaed92260f59e763de62b4cebe1f,Market St at 10th St,37.776619,-122.417385
11,12,true,true,1594114954,7e709245031d51963a79004362950401,Emeryville Town Hall,37.8312752,-122.2856333
50,5,true,true,1594115085,150,E 2 St & Avenue C,40.7208736,-73.98085795
19,0,true,true,1594115085,3857,Engert Ave & McGuinness Blvd,40.72158,-73.94546
13,5,true,true,1594114954,ccfc6870981cdd44b5a41bdee14e2a40,Jones St at Post St,37.7873267660624,-122.413278222084
32,5,true,true,1594115085,393,E 5 St & Avenue C,40.72299208,-73.97995466
15,23,true,true,1594114954,7c6f9109deafd3ed00e5a6296b711fa7,Montgomery St BART Station (Market St at 2nd St),37.7896254,-122.400811
8,11,true,true,1594115085,3059,Pulaski St & Marcus Garvey Blvd,40.6933982,-73.939877
13,2,true,true,1594114954,9cc649af249977ff781d4b755abd4388,California St at University Ave,37.8705553290575,-122.279720306396
0,7,false,false,1594114955,0d33649125be2d062ec29061a27f700e,26th Ave at International Blvd,37.781123,-122.2329915
6,11,true,true,1594115085,519,Pershing Square North,40.751873,-73.977706
4,19,true,true,1594115085,3574,Prospect Pl & Underhill Ave,40.6769694,-73.96579
8,11,true,true,1594114954,315bd655b7cf06f4cf2e3c78879043e4,Grand Ave at Santa Clara Ave,37.8127441,-122.2472152
3,36,true,true,1594115085,3367,5 Ave & E 103 St,40.7922553,-73.95249933
8,13,true,true,1594115085,3394,Columbia St & W 9 St,40.6769993,-74.00647134
14,6,true,true,1594115085,3381,3 St & Hoyt St,40.6777287,-73.99364123
9,16,true,true,1594115085,4011,Westchester Ave & Jackson Ave,40.816124,-73.908116
2,25,true,true,1594114954,5d6369a9f895ab6203a6dcc3c0fca46d,Ellis St at Pierce St,37.7819816875272,-122.435769885778
18,1,true,true,1594114954,809b005f7e15a26b2cfbbc3bff6fc733,Newhall St at 3rd St,37.7385718712672,-122.389617785811
1,20,true,true,1594115085,3835,Knickerbocker Ave & Hancock St,40.69385,-73.90974
10,21,true,true,1594114954,5bcff8aa5d11e8c0439b70f92c4489f4,Battery St at Filbert St,37.8021978524491,-122.40177154541
5,9,true,true,1594115085,3269,Brunswick & 6th,40.7260117296463,-74.0503889322281
7,10,true,true,1594115085,3862,Linden St & Knickerbocker Ave,40.69714,-73.91566
8,29,true,true,1594115085,259,South St & Whitehall St,40.70122128,-74.01234218
11,23,true,true,1594114955,0e4da93fd7f3f40a487bcc523ea1e382,Townsend St at 5th St,37.775234868606,-122.397437095642
0,52,true,true,1594115085,500,Broadway & W 51 St,40.76228826,-73.98336183
9,21,true,true,1594114954,0cf849e96fab60354361a029018c0447,Golden Gate Ave at Franklin St,37.7807871267462,-122.421933710575
18,21,true,true,1594115085,217,Old Fulton St,40.70277159,-73.99383605
10,21,true,true,1594114955,8e711e8b90789c76e17e55c44e975fc1,Civic Center/UN Plaza BART Station (Market St at McAllister St),37.7810737,-122.4117382
1,33,true,true,1594115085,3362,Madison Ave & E 82 St,40.7781314,-73.96069399
25,4,true,true,1594115085,3792,Columbus Dr at Exchange Pl,40.71687,-74.03281
5,16,true,true,1594115085,3062,Myrtle Ave & Marcy Ave,40.69539817,-73.94954908
5,14,true,true,1594115085,3820,Willoughby Ave & Myrtle Ave,40.69757,-73.93098
3,19,true,true,1594114954,e8ac145be6193651c7de9caf2bece382,The Embarcadero at Vallejo St,37.799953,-122.398525
5,13,true,true,1594115085,3598,Newton Rd & 44 St,40.7595701,-73.9142678
10,8,true,true,1594114954,d77de46766fff22f98cbfff8959742da,Folsom St at 19th St,37.7605936,-122.4148171
3,21,true,true,1594115085,3869,Van Buren St & Broadway,40.692,-73.92617
21,0,true,true,1594115085,3968,Propsect Ave & E 151 St,40.814232,-73.903927
6,16,true,true,1594115085,4016,Adam Clayton Powell Blvd & W 130 St,40.812346,-73.946168
17,18,true,true,1594115085,515,W 43 St & 10 Ave,40.76009437,-73.99461843
8,62,true,true,1594115085,173,Broadway & W 49 St,40.7606832709659,-73.9845272898674
2,17,true,true,1594115085,3834,Irving Ave & Halsey St,40.69467,-73.90663
6,15,true,true,1594115085,3525,23 Ave & 27 St,40.776165,-73.9153175
4,13,true,true,1594115085,3897,Onderdonk Ave & Dekalb Ave,40.70863,-73.91497
25,0,true,true,1594115085,3856,Kingsland Ave & Nassau Ave,40.72577,-73.94173
30,18,true,true,1594115085,377,6 Ave & Canal St,40.72243797,-74.00566443
14,31,true,true,1594115085,3119,Vernon Blvd & 50 Ave,40.74232744,-73.95411749
1,45,true,true,1594115085,3731,W 47 St & 6 Ave,40.758397,-73.98255
10,19,true,true,1594115085,239,Willoughby St & Fleet St,40.69196566,-73.9813018
11,7,true,true,1594115085,3795,10 St & 2 Ave,40.671907,-73.993612
15,34,true,true,1594115085,3320,Central Park West & W 100 St,40.7940666081855,-73.9628684520721
38,5,true,true,1594115085,316,Fulton St & William St,40.70955958,-74.00653609
15,5,true,true,1594115085,3822,Bushwick Ave & Forrest St,40.70076,-73.93641
47,0,true,true,1594115085,427,Bus Slip & State St,40.701907,-74.013942
12,15,true,true,1594115085,3101,N 12 St & Bedford Ave,40.72079821,-73.95484712
28,4,true,true,1594115085,304,Broadway & Battery Pl,40.70463334,-74.01361706
11,8,true,true,1594114955,ddba0b45b8a5d3fca71d2852f9ac0e06,16th St Mission BART Station 2,37.7647652154977,-122.420091032982
14,5,true,true,1594115085,3392,Commerce St & Van Brunt St,40.6812117,-74.00860912
24,12,true,true,1594115085,402,Broadway & E 22 St,40.7403432,-73.98955109
17,31,true,true,1594115085,3812,University Pl & E 14 St,40.734814,-73.992085
8,5,true,true,1594115085,3225,Baldwin at Montgomery,40.7236589,-74.0641943
4,15,true,true,1594114954,53defeb2bee24453f61bbcb1fe20781e,Lane St at Revere Ave,37.7317266935217,-122.390055656433
22,20,true,true,1594115085,3697,W 64 St & Thelonious Monk Circle,40.7751595343424,-73.9891869574785
28,15,true,true,1594115085,3435,Grand St & Elizabeth St,40.718822,-73.99596
12,7,true,true,1594114954,3f5c0437929a0f6dbc32f116850a4196,Frank H Ogawa Plaza,37.8045623549303,-122.271738052368
21,6,true,true,1594114954,c7bb5e8c49bf8b8165f0d7f09d620df3,Pierce St at Haight St,37.7717933,-122.4337079
9,22,true,true,1594115085,3289,W 90 St & Amsterdam Ave,40.7901794809508,-73.9728891849518
3,26,true,true,1594115085,3502,Lexington Ave & E 111 St,40.7954121,-73.9441232
15,4,true,true,1594114955,747ad69590452aaad4ca15ffb1c70944,Market St at Brockhurst St,37.8233214,-122.2757325
1,29,true,true,1594115085,3235,E 41 St & Madison Ave,40.752165280622,-73.9799219369888
2,30,true,true,1594115085,3505,Lexington Ave & E 127 St,40.805726,-73.936322
44,2,true,true,1594115085,236,St Marks Pl & 2 Ave,40.7284186,-73.98713956
33,2,true,true,1594115085,3374,Central Park North & Adam Clayton Powell Blvd,40.799484,-73.955613
11,13,true,true,1594114954,1e03b246c6716378bd815f00c7a635da,Rockridge BART Station,37.8442787539907,-122.251900434494
11,12,true,true,1594115085,3407,Union St & Nevins St,40.6790979972168,-73.9876547455788
2,33,true,true,1594115085,3127,9 St & 44 Rd,40.74966,-73.9521
4,15,true,true,1594114954,14a97c92c9427a9c2b254f07ae442ddf,St James St at 9th St,37.3432084884735,-121.884389519691
44,10,true,true,1594115085,3016,Kent Ave & N 7 St,40.7203677529846,-73.9616507291794
15,21,true,true,1594115085,4038,Southpoint Park,40.7537022541911,-73.9586520195007
33,30,true,true,1594115085,497,E 17 St & Broadway,40.73704984,-73.99009296
22,5,true,true,1594114954,4ceb165eadff654c51cd12c1fc44b422,Octavia Blvd at Page St,37.7740179376835,-122.423808574677
19,7,true,true,1594115085,3123,31 St & Thomson Ave,40.74469738,-73.93540375
11,7,true,true,1594114955,508ff9dac5112a003f225a2e7b8423a2,College Ave at Harwood Ave,37.848152,-122.2521599
3,15,true,true,1594115085,3201,Dey St,40.737711,-74.066921
6,18,true,true,1594115085,143,Clinton St & Joralemon St,40.69239502,-73.99337909
11,13,true,true,1594115085,3841,Menahan St & Central Ave,40.69543,-73.9196
9,5,true,true,1594114954,16b5b91495e0c631f87a21bdc3b2d41f,Market St at 45th St,37.834174,-122.272968
7,12,true,true,1594114955,8846b5e327d73c5c91f52afb03bee796,Rhode Island St at 17th St,37.7644783,-122.4025701
16,3,true,true,1594115085,3071,Boerum St & Broadway,40.70538077,-73.94976519
18,5,true,true,1594114954,9be7e0050df8db9c65bee11853497d9c,Milvia St at Derby St,37.8601245991168,-122.269384413958
21,45,true,true,1594115085,494,W 26 St & 8 Ave,40.74734825,-73.99723551
6,21,true,true,1594115085,3308,Kane St & Clinton St,40.6861758,-73.99645295
19,8,true,true,1594115085,3364,Carroll St & 5 Ave,40.6751622,-73.9814832
20,18,true,true,1594115085,3231,E 67 St & Park Ave,40.7678008014813,-73.9659208059311
27,6,true,true,1594115085,79,Franklin St & W Broadway,40.71911552,-74.00666661
21,7,true,true,1594115085,3569,Franklin Ave & St Marks Ave,40.6758324,-73.9561677
38,26,true,true,1594115085,490,8 Ave & W 33 St,40.751551,-73.993934
33,12,true,true,1594115085,3150,E 85 St & York Ave,40.77536905,-73.94803392
7,17,true,true,1594115085,3041,Kingston Ave & Herkimer St,40.67890679,-73.94142771
7,12,true,true,1594114955,25b03a236b79e665a5ed9d316388b9cd,Bird Ave at Willow St,37.3112839461174,-121.896325349808
1,38,true,true,1594115085,465,Broadway & W 41 St,40.75513557,-73.98658032
12,2,true,true,1594114955,f7b24d5a88d4a5280b0a123465ceeb9a,23rd Ave at Foothill Blvd,37.7851915,-122.2343822
20,3,true,true,1594115085,313,Washington Ave & Park Ave,40.69610226,-73.96751037
27,8,true,true,1594115085,336,Sullivan St & Washington Sq,40.73047747,-73.99906065
14,16,true,true,1594115085,3486,Schermerhorn St & Bond St,40.6884174275408,-73.9845165610313
7,11,true,true,1594114954,75f3c9a171396a52dbd9e36477d9fce0,San Francisco Caltrain Station (King St at 4th St),37.7763288172859,-122.394438385963
13,14,true,true,1594114954,10880ce63c335b9192ecf58992798f23,Sunol St at San Carlos St,37.3234513387068,-121.905975937843
52,7,true,true,1594115085,212,W 16 St & The High Line,40.74334935,-74.00681753
7,12,true,true,1594114954,a3e415a5d4437c5b8ed58f5620a2acb1,11th St at Natoma St,37.7735069,-122.4160402
16,3,true,true,1594115085,3088,Union Ave & Jackson St,40.7160751,-73.952029
24,3,true,true,1594115085,480,W 53 St & 10 Ave,40.76669671,-73.99061728
11,16,true,true,1594115085,346,Bank St & Hudson St,40.73652889,-74.00618026
9,6,true,true,1594114954,91d9780bfc14a91941e7762b36f7d3d5,49th St at Telegraph Ave,37.8359455,-122.2623663
9,40,true,true,1594115085,116,W 17 St & 8 Ave,40.74177603,-74.00149746
5,18,true,true,1594115085,3064,Myrtle Ave & Lewis Ave,40.69681963,-73.93756926
24,13,true,true,1594115085,3783,Cliff St & Fulton St,40.70838,-74.00495
30,21,true,true,1594115085,405,Washington St & Gansevoort St,40.739323,-74.008119
7,12,true,true,1594114954,90121a01efdc07c2f3964d1006ba3fc7,The Embarcadero at Bryant St,37.7871680147466,-122.388097923304
19,6,true,true,1594115085,3430,Richardson St & N Henry St,40.7190789117956,-73.9422369003296
40,21,true,true,1594115085,509,9 Ave & W 22 St,40.7454973,-74.00197139
1,21,true,true,1594115085,3830,Halsey St & Evergreen Ave,40.68858,-73.91227
19,5,true,true,1594115085,3400,E 110 St & Madison Ave,40.7961535,-73.94782145
13,8,true,true,1594115085,3356,Amsterdam Ave & W 66 St,40.7746671,-73.98470567
22,7,true,true,1594114954,757a1335f8dc9372b851e394e23401df,Post St at Webster St,37.785394,-122.431821
2,33,true,true,1594115085,3986,E 149 St & Morris Ave,40.81734,-73.922962
25,3,true,true,1594115085,513,W 56 St & 10 Ave,40.768254,-73.988639
15,4,true,true,1594115085,3759,Irving Ave & Jefferson St,40.70538,-73.92535
3,32,true,true,1594115085,3831,Broadway & Hancock St,40.68663,-73.9168
34,3,true,true,1594115085,3671,E 81 St & 2 Ave,40.7747794489573,-73.9542746543884
11,12,true,true,1594114954,0d5e25e4358800e347be5dd9808fabb5,Channing Way at Shattuck Ave,37.8658466,-122.2674431
9,5,true,true,1594115085,3275,Columbus Drive,40.7183551982321,-74.0389144420624
3,20,true,true,1594115085,3317,10 St & 5 Ave,40.6686273,-73.98700053
18,1,true,true,1594115085,3066,Tompkins Ave & Hopkins St,40.69957608,-73.94708417
7,16,true,true,1594115085,3383,Cathedral Pkwy & Broadway,40.804213,-73.96699104
28,20,true,true,1594115085,358,Christopher St & Greenwich St,40.73291553,-74.00711384
10,37,true,true,1594115085,3146,E 81 St & 3 Ave,40.77573034,-73.9567526
10,26,true,true,1594115085,3331,Riverside Dr & W 104 St,40.8013434,-73.9711457439
1,25,true,true,1594115085,3206,Hilltop,40.7311689,-74.0575736
10,31,true,true,1594115085,3341,Central Park West & W 102 St,40.795346,-73.96186
23,19,true,true,1594115085,3467,W Broadway & Spring St,40.7249467235942,-74.0016585588455
10,20,true,true,1594115085,391,Clark St & Henry St,40.69760127,-73.99344559
10,17,true,true,1594114954,28ed5f94c9410f5bb4924b958b518d62,4th St at Mission Bay Blvd S,37.7704074,-122.3911984
18,8,true,true,1594114954,85c221c7e425d56ab0af30b88aeb9422,Hyde St at Post St,37.787349023166,-122.41665109992
7,10,true,true,1594114954,a6b2ae23c98c47b86a9e84062ea5c3ee,Broadway at Kearny St,37.7980136439598,-122.405950427055
11,12,true,true,1594115085,3768,Waterbury St & Stagg St,40.71019,-73.93734
13,5,true,true,1594115085,3694,Jackson Square,40.71113,-74.0789
9,34,true,true,1594115085,2021,W 45 St & 8 Ave,40.75929124,-73.98859651
2,25,true,true,1594115085,3492,E 118 St & Park Ave,40.8005385,-73.9419949
6,29,true,true,1594115085,3132,E 59 St & Madison Ave,40.76350532,-73.97109243
10,17,true,true,1594115085,3411,Bond St & Bergen St,40.6849668,-73.98620772
13,12,true,true,1594115085,3387,E 106 St & Madison Ave,40.7934337,-73.94945003
1,22,true,true,1594115085,3948,E 138 St & Cypress Ave,40.805559,-73.914718
9,10,true,true,1594115085,289,Monroe St & Classon Ave,40.6845683,-73.95881081
11,11,true,true,1594115085,3787,Dock 72 Way & Market St,40.69985,-73.97141
1,18,true,true,1594115085,3878,Cypress Ave & George St,40.69812,-73.90271
1,37,true,true,1594115085,237,E 11 St & 2 Ave,40.73047309,-73.98672378
11,27,true,true,1594114954,6c19c7f80a0d01e4aabf6f13d53c06fe,San Francisco Ferry Building (Harry Bridges Plaza),37.795392,-122.394203
6,13,true,true,1594114954,8871c7071f12d64be21a6289a9bae684,McAllister St at Arguello Blvd,37.7752136678903,-122.458333969116
13,5,true,true,1594114955,10993d38ed7f7f386aac53c347b6bd5a,Eureka Valley Recreation Center,37.7591769,-122.4369431
13,6,true,true,1594114954,a0496399215776edf93495c745bc73c9,19th St at Mission St,37.760299,-122.418892
2,17,true,true,1594114954,55389695e3090fea977edbe85a0b7dfc,Fulton St at Ashby Ave,37.8555736618288,-122.2635653615
20,13,true,true,1594115085,305,E 58 St & 3 Ave,40.76095756,-73.96724467
24,10,true,true,1594115085,325,E 19 St & 3 Ave,40.73624527,-73.98473765
3,16,true,true,1594114955,18ecb3d50f2e42cbeaa54e2700fa3093,59th St at Horton St,37.8409452,-122.2913604
5,18,true,true,1594114954,ef3a4e5c05845ca17d2c2db654a2a5fa,Broadway at Coronado Ave,37.8357883,-122.2516207
51,9,true,true,1594115085,3714,Division Ave & Hooper St,40.7068420310133,-73.9544353965357
10,5,true,true,1594114954,9e888f5eda42142a65c52234a617c399,20th St at Bryant St,37.7592005,-122.409851
16,11,true,true,1594115085,342,Columbia St & Rivington St,40.71739973,-73.98016555
8,12,true,true,1594114955,0c7d51b231f5c05163176b80b5c825bf,Cruise Terminal at Pier 27,37.804648,-122.402087
26,28,true,true,1594115085,472,E 32 St & Park Ave,40.7457121,-73.98194829
10,17,true,true,1594114955,8302e5d11a6c84bac27a774de41474f9,Lake Merritt BART Station,37.7973195,-122.2653199
32,3,true,true,1594115085,454,E 51 St & 1 Ave,40.75455731,-73.96592976
0,27,true,true,1594115085,3124,46 Ave & 5 St,40.74731,-73.95451
25,5,true,true,1594115085,516,E 47 St & 1 Ave,40.75206862,-73.96784384
0,6,false,false,1594114955,182f517a38db07df6b2fcc8ac0da3617,San Antonio Park,37.7901398518536,-122.242373228073
28,1,true,true,1594115085,3086,Graham Ave & Conselyea St,40.715143,-73.944507
4,19,true,true,1594114954,8be5197057004601e172a2eb9bbe1f11,Virginia St at Shattuck Ave,37.8765725491069,-122.26952791214
21,0,true,true,1594115085,3311,Columbia St & Kane St,40.68763155,-74.0016256
13,33,true,true,1594115085,3143,5 Ave & E 78 St,40.7763214218227,-73.964273929596
5,24,true,true,1594115085,3313,6 Ave & 12 St,40.6663181,-73.9854617
1,18,true,true,1594115085,3885,Onderdonk Ave & Gates Ave,40.70413,-73.90737
10,4,true,true,1594115085,3267,Morris Canal,40.7124188237569,-74.0385255217552
16,3,true,true,1594115085,3621,27 Ave & 9 St,40.7739825,-73.9309134
3,40,true,true,1594115085,3440,Fulton St & Adams St,40.6924182925785,-73.989494740963
3,15,true,true,1594115085,3677,Glenwood Ave,40.7275514673001,-74.0710607171059
21,2,true,true,1594115085,3342,Pioneer St & Richards St,40.6777748,-74.0094613
8,21,true,true,1594115085,3423,West Drive & Prospect Park West,40.6610633719006,-73.9794525504112
51,0,true,true,1594115085,3100,Nassau Ave & Newell St,40.7248125644002,-73.947526216507
4,25,true,true,1594115085,3825,Broadway & Furman Ave,40.68139,-73.90756
11,27,true,true,1594115085,3286,E 89 St & 3 Ave,40.7806284,-73.9521667
10,5,true,true,1594114955,55287fdab6af4d37f97e17770b823bbe,West St at University Ave,37.869966707604,-122.286533117294
3,31,true,true,1594115085,3543,Morningside Dr & Amsterdam Ave,40.81028506306,-73.9573645591736
9,33,true,true,1594115085,3244,University Pl & E 8 St,40.7314372408523,-73.9949034154415
13,10,true,true,1594114955,28c7a7022b746c9a0f84784300c04904,45th St at Manila,37.8332935222321,-122.256224155426
10,9,true,true,1594114954,f54ea4118a93165223d045661a698c74,Telegraph Ave at 23rd St,37.8126783,-122.2687726
9,19,true,true,1594114954,0891ec75daf2bf9e823f4a02e21fa9fd,Downtown Berkeley BART,37.870139,-122.268422
12,15,true,true,1594114954,c84aa30b9e135787bd06304d3b4caf88,Union Square (Powell St at Post St),37.7882999781508,-122.408530712128
7,25,true,true,1594115085,3866,Wilson Ave & Moffat St,40.68906,-73.90506
2,31,true,true,1594115085,3629,Adam Clayton Powell Blvd & W 126 St,40.8094953477795,-73.9477649331093
1,22,true,true,1594115085,3956,St. Ann's Ave & E 144 St,40.811112,-73.914932
0,27,true,true,1594115085,3934,St Nicholas Ave & E 134 St,40.816234,-73.948222
7,12,true,true,1594114955,39fa65084ac0f773d217ae74de2108d4,Clara St at 4th St,37.7806747713227,-122.400811314583
22,16,true,true,1594115085,3096,Union Ave & N 12 St,40.71924,-73.95242
32,2,true,true,1594115085,3116,Huron St & Franklin St,40.73266,-73.95826
24,11,true,true,1594115085,3686,Gansevoort St & Hudson St,40.739448201304,-74.0050703287125
4,31,true,true,1594115085,3345,Madison Ave & E 99 St,40.7894854155322,-73.9524292945862
4,10,true,true,1594114954,2792606a06b63a5eb5dd0d4e78641c7c,Hearst Ave at Euclid Ave,37.8751116928644,-122.260553240776
26,3,true,true,1594115085,127,Barrow St & Hudson St,40.73172428,-74.00674436
7,26,true,true,1594115085,3425,2 Ave & E 104 St,40.7892105,-73.94370784
2,35,true,true,1594115085,3785,W 42 St & 6 Ave,40.75492,-73.98455
5,35,true,true,1594115085,485,W 37 St & 5 Ave,40.75038009,-73.98338988
14,0,true,true,1594114955,ca3529cb0093cf568576c95492de5a68,18th St at Noe St,37.7610471,-122.4326417
25,1,true,true,1594115085,3803,Bedford Ave & Montgomery St,40.665816,-73.956934
3,14,true,true,1594114954,222c002644107f260e59c8946fb6d383,Arlington St at Roanoke St,37.734966,-122.429772
26,25,true,true,1594115085,514,12 Ave & W 40 St,40.76087502,-74.00277668
8,15,true,true,1594114954,0ad27fbfea7dbf64cba3f6afc153a3f6,37th St at West St,37.8266955864097,-122.271797060966
16,3,true,true,1594115085,3596,Sullivan Pl & Bedford Ave,40.6642406,-73.9574686
2,24,true,true,1594115085,397,Fulton St & Clermont Ave,40.68415748,-73.96922273
21,0,true,true,1594115085,4004,Edgecombe Ave & W 141 St,40.820681,-73.945144
6,12,true,true,1594114954,147f785aa4926a3cabe56c607d6f6e7c,Brannan St at 4th St,37.7779336700675,-122.396973073483
13,11,true,true,1594115085,295,Pike St & E Broadway,40.71406667,-73.99293911
8,21,true,true,1594115085,3168,Central Park West & W 85 St,40.78472675,-73.96961715
3,19,true,true,1594115085,420,Clermont Ave & Lafayette Ave,40.68764484,-73.96968902
8,7,true,true,1594114954,ab6763b2d94b0eb690addb48b9cf3827,College Ave at Taft Ave,37.8417999,-122.2515349
0,21,true,true,1594115085,3602,31 Ave & 34 St,40.763154,-73.920827
0,3,false,false,1594114955,1756b8a7b00189ed5c04a3171959e3f7,24th St at Market St,37.8160598,-122.2782444
4,11,true,true,1594114953,7a21c92b3b4cd2f7759107b4fdebf869,Bestor Art Park,37.3236779,-121.8741186
28,5,true,true,1594115085,3075,Division Ave & Marcy Ave,40.70708701,-73.95796783
9,13,true,true,1594115085,3214,Essex Light Rail,40.7127742,-74.0364857
37,6,true,true,1594115085,546,E 30 St & Park Ave S,40.74444921,-73.98303529
7,24,true,true,1594114954,ef1e16d2e298bfbc6724316dc9f2c3c8,Raymond Kimbell Playground,37.7838127092781,-122.434558868408
7,16,true,true,1594114954,7c5956d0a4c6cddac966274e7595dc04,Illinois St at 20th St,37.7604575554348,-122.387539744377
16,11,true,true,1594114953,ce34d38fb230a23c1ced12d1e16df294,5th St at Virginia St,37.3259984,-121.87712
18,0,true,true,1594114954,a9af746a9f25302bc6e438d12b4171f2,48th Ave at Cabrillo St,37.772954,-122.509071
9,14,true,true,1594114954,d03ef7e37a2b7f3572731b47ab9424f1,Father Alfred E Boeddeker Park,37.7839879,-122.412408
15,8,true,true,1594115085,3647,48 Ave & 30 Pl,40.7412830935599,-73.9372587203979
3,27,true,true,1594115085,3664,North Moore St & Greenwich St,40.7201952143747,-74.0103006362915
2,17,true,true,1594115085,3950,Brook Ave & E 141 St,40.809619,-73.917875
14,9,true,true,1594114954,2bef6d41ec5018bb81726f3e1f59d344,Julian St at The Alameda,37.3322326,-121.9125165
8,15,true,true,1594115085,3293,W 92 St & Broadway,40.7921,-73.9739
15,28,true,true,1594115085,386,Centre St & Worth St,40.71494807,-74.00234482
8,11,true,true,1594115085,3969,St Ann's Ave & Westchester Ave,40.815887,-73.911918
16,6,true,true,1594115085,3514,Astoria Park S & Shore Blvd,40.7767,-73.927631
3,55,true,true,1594115085,3263,Cooper Square & Astor Pl,40.7295149622495,-73.990752696991
6,36,true,true,1594114955,3ed879a85fa1fb4c29cb8fae8aaf6ea2,Terry Francois Blvd at Warriors Way,37.7690948872811,-122.38633275032
9,12,true,true,1594115085,3209,Brunswick St,40.7241765,-74.0506564
0,17,true,true,1594115085,3941,Walnut Ave & E 136 St,40.801657,-73.909513
